cell,name,lat,lon,top_station,CIS,CIS_rank,n_violations,road_class,dominant_poi,peak_hour,demand_index,blind_spot,reliable,devices,evening_share,observed,archetype,intervention
17239_2880,BTP082 - KR Market Junction,12.96377156955796,77.57730956075241,City Market,65.18551062154376,1,7507,1.537032103370188,poi_market,0,86.28735632183908,41.281406230971896,True,85,0.1285466897562275,7507,Commercial / loading corridor,Designated timed loading bays + off-peak delivery windows; enforce during peak
17234_2891,80 Feet Ring Road,13.011858660097456,77.55433618197077,Malleshwaram,62.86999157917757,2,3694,1.887926367081754,poi_mall,9,59.58064516129032,49.48262259760072,True,60,0.0002707092582566,3694,Commercial / loading corridor,Designated timed loading bays + off-peak delivery windows; enforce during peak
17239_2881,BTP082 - KR Market Junction,12.965479038050722,77.57702628239475,City Market,58.542078922304775,3,4003,1.0856857356982264,poi_market,9,58.01449275362319,43.727070080225175,True,67,0.0269797651761179,4003,Two-wheeler spillover,Add two-wheeler parking supply; mark legal bays near transit/markets
17233_2888,BTP027 - Modi Bridge Junction,12.998923681363646,77.55005113127142,Rajajinagar,56.31607594222757,4,6107,2.905518257737023,poi_hospital,8,44.90441176470589,34.52346758469315,True,134,0.0009824791223186,6107,Two-wheeler spillover,Add two-wheeler parking supply; mark legal bays near transit/markets
17238_2888,Sri Venkataranga Ayangar Road,12.99891319265852,77.57142622071083,Malleshwaram,56.25464855723268,5,1652,1.1192493946731237,poi_mall,10,32.3921568627451,46.72974702288632,True,49,0.0,1652,Commercial / loading corridor,Designated timed loading bays + off-peak delivery windows; enforce during peak
17238_2890,Sri Venkataranga Ayangar Road,13.007076967245215,77.57117164134401,Malleshwaram,56.0703722809253,6,2247,1.1951490876724522,poi_mall,10,48.84782608695652,47.86762364107232,True,44,0.0,2247,CBD car parking,Occupancy-responsive paid parking (SFpark-style) + clear signage
17265_2875,Kadubeesanahalli Underpass,12.93966347304342,77.69562433761578,HAL Old Airport,55.01675805327613,7,1806,2.6608527131782944,none,8,41.04545454545455,47.51471662713232,True,42,0.0,1806,Footpath / main-road encroachment,Physical deterrents (bollards/chains) + sustained pedestrian-priority enforcement
17237_2890,15th Cross Road,13.006556181072554,77.56952568056782,Malleshwaram,54.24117668073137,8,1585,1.4542586750788644,poi_mall,7,36.02272727272727,46.84489291447261,True,42,0.0,1585,CBD car parking,Occupancy-responsive paid parking (SFpark-style) + clear signage
17232_2883,BTP020 - Hosahalli Metro Station,12.974599337160402,77.54565224199563,Vijayanagara,53.89549218943092,9,5124,1.2491217798594847,poi_metro,4,76.4776119402985,41.4873359958129,True,65,0.0003903200624512,5124,Two-wheeler spillover,Add two-wheeler parking supply; mark legal bays near transit/markets
17264_2874,New Horizon College Road,12.93397216783416,77.69090904942891,HAL Old Airport,53.37329366314081,10,6883,1.208702600610199,poi_school,4,146.4468085106383,45.30876364107972,True,45,0.0,6883,Footpath / main-road encroachment,Physical deterrents (bollards/chains) + sustained pedestrian-priority enforcement
17237_2888,Siddavanahalli Krishna Sharma Road,12.998560752580929,77.56934813455818,Malleshwaram,53.027417430441325,11,1143,1.3398950131233596,poi_mall,11,31.75,48.18200315790528,True,34,0.0,1143,Commercial / loading corridor,Designated timed loading bays + off-peak delivery windows; enforce during peak
17232_2888,BTP205 - Modi Hospital Junction,12.997649004319618,77.547286470147,Vijayanagara,52.2761853295904,12,1193,1.433780385582565,poi_hospital,7,20.220338983050848,41.702529687140206,True,57,0.0008382229673093,1193,Two-wheeler spillover,Add two-wheeler parking supply; mark legal bays near transit/markets
17270_2879,ITPL Main Road,12.958065738327104,77.7159797783287,HAL Old Airport,52.27384639782107,13,582,1.868556701030928,poi_techpark,5,15.31578947368421,46.862511454213305,True,36,0.0,582,Footpath / main-road encroachment,Physical deterrents (bollards/chains) + sustained pedestrian-priority enforcement
17239_2879,BTP104 - Medical College Circle,12.958888332348112,77.57703226792556,City Market,52.051356660554205,14,1827,1.2681992337164751,poi_school,11,39.71739130434783,44.41908269096804,True,44,0.0005473453749315,1827,Commercial / loading corridor,Designated timed loading bays + off-peak delivery windows; enforce during peak
17239_2883,BTP040 - Elite Junction,12.976285702363008,77.57740168818496,Upparpet,51.61397593547535,15,17647,1.5537768459228198,poi_school,9,205.19767441860463,36.87736626653939,True,84,0.0003966679888932,17647,Two-wheeler spillover,Add two-wheeler parking supply; mark legal bays near transit/markets
17238_2881,"BTP083 - AS Char Street, Mysore Road",12.96645193367329,77.57446479043875,Chamarajpet,50.81607551147314,16,2826,1.6675513092710543,poi_market,1,32.11363636363637,34.19662481444598,True,86,0.0598018400566171,2826,Footpath / main-road encroachment,Physical deterrents (bollards/chains) + sustained pedestrian-priority enforcement
17238_2870,"BTP115 - Sahasra Hospital, Jayanagar",12.91708027401245,77.573524368663,Banashankari,50.65728674111168,17,532,1.8900375939849623,poi_transit,3,17.161290322580644,47.73486505862068,True,29,0.0,532,Commercial / loading corridor,Designated timed loading bays + off-peak delivery windows; enforce during peak
17239_2882,BTP044 - Sagar Theatre Junction,12.971908266138817,77.57765435715399,Upparpet,50.28100366937589,18,5618,1.5752936988252046,poi_hospital,9,48.85217391304348,32.68987222819756,True,113,0.0007119971520113,5618,Two-wheeler spillover,Add two-wheeler parking supply; mark legal bays near transit/markets
17270_2880,ITPL Main Road,12.96297741879518,77.7173440307229,HAL Old Airport,50.130396661961576,19,830,1.9704819277108436,poi_techpark,5,103.75,63.18058109200085,True,6,0.0,830,Commercial / loading corridor,Designated timed loading bays + off-peak delivery windows; enforce during peak
17240_2883,BTP044 - Sagar Theatre Junction,12.976322617607458,77.58118527415847,Upparpet,49.755462118963045,20,1931,1.4236147074054897,poi_school,9,24.443037974683545,36.49602916653887,True,77,0.0,1931,Commercial / loading corridor,Designated timed loading bays + off-peak delivery windows; enforce during peak
17263_2873,Outer Ring Road,12.930670362731677,77.68568640764217,HAL Old Airport,49.69017377114783,21,1408,2.2954545454545454,poi_techpark,8,23.864406779661017,39.66513711407226,True,57,0.0,1408,Footpath / main-road encroachment,Physical deterrents (bollards/chains) + sustained pedestrian-priority enforcement
17252_2869,17th Cross Road,12.912145844076214,77.6367166381793,HSR Layout,49.60813088703663,22,1562,1.7829705505761844,poi_metro,14,57.851851851851855,48.16110741882412,True,25,0.0044814340588988,1562,Two-wheeler spillover,Add two-wheeler parking supply; mark legal bays near transit/markets
17245_2884,BTP051 - Safina Plaza Junction,12.98131471405821,77.60540448681786,Shivajinagar,49.52494153694562,23,2956,1.2016238159675237,poi_hospital,10,44.11940298507463,38.07317762661911,True,65,0.0020297699594046,2956,Two-wheeler spillover,Add two-wheeler parking supply; mark legal bays near transit/markets
17234_2890,"BTP001 - 10th Cross, Dr. Rajkumar Road",13.008478477602146,77.55491032105577,Malleshwaram,49.517992638781934,24,3353,2.28586340590516,poi_school,10,64.48076923076923,40.774447249210446,True,50,0.004771846107963,3353,CBD car parking,Occupancy-responsive paid parking (SFpark-style) + clear signage
17269_2882,ITPL Main Road,12.971449973474552,77.71196507487743,HAL Old Airport,49.48058757831026,25,684,1.9144736842105263,poi_techpark,3,19.542857142857144,45.27270023196315,True,33,0.0,684,Footpath / main-road encroachment,Physical deterrents (bollards/chains) + sustained pedestrian-priority enforcement
17233_2883,"BTP070 - Cholurpalya Junction, Magadi Road",12.97396637317895,77.55103306736471,Magadi Road,48.971066971996976,26,1689,1.310242747187685,poi_mall,11,31.27777777777778,40.055848431476655,True,52,0.0,1689,Two-wheeler spillover,Add two-wheeler parking supply; mark legal bays near transit/markets
17259_2888,MBT Road,12.996369817382268,77.66872528235007,Mahadevapura,48.90591213312006,27,1466,1.1091405184174623,poi_metro,10,48.86666666666667,46.44683674685216,True,28,0.0,1466,Footpath / main-road encroachment,Physical deterrents (bollards/chains) + sustained pedestrian-priority enforcement
17246_2884,BTP051 - Safina Plaza Junction,12.981120320406966,77.60921567682536,Shivajinagar,48.76932720937408,28,12660,1.099170616113744,poi_market,10,164.41558441558442,36.04951875290568,True,75,0.0,12660,Commercial / loading corridor,Designated timed loading bays + off-peak delivery windows; enforce during peak
17230_2882,BTP028 - Vijayanagar Bus Stand Junction,12.971927237387908,77.53761778091948,Vijayanagara,48.76247706850585,29,855,1.5099415204678364,poi_transit,10,18.19148936170213,41.39462634617721,True,45,0.0,855,Two-wheeler spillover,Add two-wheeler parking supply; mark legal bays near transit/markets
17240_2884,BTP058 - Subbanna Junction,12.978876687405812,77.58098968127018,Upparpet,48.73219693445808,30,929,1.290096878363832,poi_transit,2,12.90277777777778,36.74678368575683,True,70,0.0,929,CBD car parking,Occupancy-responsive paid parking (SFpark-style) + clear signage
17231_2878,BTP096 - Gali Anjaneya Temple,12.953161237142732,77.54223855174112,Byatarayanapura,48.24343150461488,31,1649,1.018799272286234,poi_transit,1,36.644444444444446,41.11743871445397,True,43,0.0103092783505154,1649,Footpath / main-road encroachment,Physical deterrents (bollards/chains) + sustained pedestrian-priority enforcement
17270_2881,ITPL Main Road,12.965468273841552,77.71788253161435,HAL Old Airport,48.22195697403811,32,1338,1.9869207772795217,poi_techpark,7,121.63636363636364,57.01681395368753,True,9,0.0,1338,Commercial / loading corridor,Designated timed loading bays + off-peak delivery windows; enforce during peak
17261_2888,Outer Ring Road,13.000225008156391,77.67693137874139,Mahadevapura,47.98663754707707,33,1593,2.274952919020716,none,1,35.4,41.20214461499389,True,43,0.0,1593,Footpath / main-road encroachment,Physical deterrents (bollards/chains) + sustained pedestrian-priority enforcement
17239_2884,BTP058 - Subbanna Junction,12.978994973018166,77.57837034474599,Upparpet,47.47227263389607,34,3898,1.383786557208825,poi_transit,1,48.725,34.6891390766836,True,78,0.0,3898,CBD car parking,Occupancy-responsive paid parking (SFpark-style) + clear signage
17238_2889,Sri Venkataranga Ayangar Road,13.00212114345351,77.57130304459204,Malleshwaram,47.46558202388602,35,527,1.092979127134725,poi_mall,10,11.456521739130435,40.52166097346856,True,44,0.0,527,Commercial / loading corridor,Designated timed loading bays + off-peak delivery windows; enforce during peak
17265_2890,MBT Road,13.008288554741808,77.69514625279524,K.R. Pura,47.126978878316685,36,3715,1.0660834454912518,poi_hospital,0,57.15384615384615,32.611950160881875,True,63,0.1380888290713324,3715,Footpath / main-road encroachment,Physical deterrents (bollards/chains) + sustained pedestrian-priority enforcement
17254_2882,12th Main Road,12.970694963060222,77.64632908655345,Jeevanbheemanagar,47.09204267868476,37,818,1.6399755501222495,poi_hospital,13,19.476190476190474,41.16073654432344,True,40,0.0,818,Footpath / main-road encroachment,Physical deterrents (bollards/chains) + sustained pedestrian-priority enforcement
17265_2887,Whitefield Road,12.995458142784551,77.69576173217483,Mahadevapura,47.01260698205362,38,896,1.1350446428571428,poi_market,11,28.0,43.83479709310687,True,30,0.0044642857142857,896,Footpath / main-road encroachment,Physical deterrents (bollards/chains) + sustained pedestrian-priority enforcement
17238_2884,BTP057 - Anand Rao Junction,12.97927327869662,77.57439229997532,Upparpet,46.94062168383753,39,4051,1.027770920760306,poi_hospital,9,61.37878787878788,36.28728944179494,True,64,0.0004937052579609,4051,Commercial / loading corridor,Designated timed loading bays + off-peak delivery windows; enforce during peak
17233_2882,"BTP070 - Cholurpalya Junction, Magadi Road",12.973403094188862,77.5509149362389,Magadi Road,46.83014899852069,40,1239,1.608555286521388,poi_mall,12,51.625,46.84758848511476,True,22,0.0,1239,Two-wheeler spillover,Add two-wheeler parking supply; mark legal bays near transit/markets
17230_2881,"BTP016 - 5th Main Road, RPC Layout",12.966177711298174,77.5376881921727,Vijayanagara,46.55047208042534,41,3144,1.9631043256997456,poi_market,10,49.125,36.29044452947958,True,62,0.0009541984732824,3144,Two-wheeler spillover,Add two-wheeler parking supply; mark legal bays near transit/markets
17264_2873,New Horizon College Road,12.932576480842393,77.6902643877818,HAL Old Airport,46.5170958549911,42,1530,1.5784313725490196,poi_school,8,36.42857142857143,40.65820504662389,True,40,0.0,1530,Footpath / main-road encroachment,Physical deterrents (bollards/chains) + sustained pedestrian-priority enforcement
17270_2878,Vibgyor High School Road,12.95180500919755,77.71741867519945,Whitefield,46.49551637111804,43,329,1.0,poi_school,8,14.954545454545457,47.17697572529764,True,20,0.0091185410334346,329,Footpath / main-road encroachment,Physical deterrents (bollards/chains) + sustained pedestrian-priority enforcement
17266_2877,Outer Ring Road,12.949531229347878,77.69957015356746,HAL Old Airport,46.43574236669187,44,908,2.269273127753304,poi_school,3,28.375,43.42413322097599,True,30,0.0,908,Footpath / main-road encroachment,Physical deterrents (bollards/chains) + sustained pedestrian-priority enforcement
17234_2886,"BTP204 - ESI Hospital, Rajajinagar",12.989335798073556,77.55479610437828,Rajajinagar,46.38086203445365,45,571,1.73292469352014,poi_hospital,5,38.06666666666667,51.42968103477455,True,13,0.0,571,Commercial / loading corridor,Designated timed loading bays + off-peak delivery windows; enforce during peak
17255_2879,Old Airport Road,12.959390763263364,77.64905700312792,Jeevanbheemanagar,46.12692679147979,46,458,1.1943231441048034,poi_hospital,9,19.08333333333333,46.14410439903836,True,22,0.0,458,Footpath / main-road encroachment,Physical deterrents (bollards/chains) + sustained pedestrian-priority enforcement
17266_2878,Outer Ring Road,12.95193275526479,77.69997625587698,HAL Old Airport,45.85431131516067,47,461,2.20824295010846,none,2,17.73076923076923,45.0358822996159,True,24,0.0,461,Footpath / main-road encroachment,Physical deterrents (bollards/chains) + sustained pedestrian-priority enforcement
17262_2929,Unnamed Road,13.18406401653348,77.6798520046726,Chikkajala,45.72075090107652,48,2703,1.0,none,1,71.13157894736842,40.91512921379314,True,36,0.0025897151313355,2703,Footpath / main-road encroachment,Physical deterrents (bollards/chains) + sustained pedestrian-priority enforcement
17266_2879,Marathahalli Underpass,12.957613126125832,77.70094016231286,HAL Old Airport,45.554308045965,49,1117,2.443151298119964,none,10,22.34,37.8670947603776,True,48,0.0062667860340196,1117,Footpath / main-road encroachment,Physical deterrents (bollards/chains) + sustained pedestrian-priority enforcement
17252_2864,Hosur Road,12.89186242411713,77.63802616154565,Hulimavu,45.53523834499779,50,323,1.2910216718266254,poi_techpark,2,53.833333333333336,60.73726675281748,True,4,0.0,323,Footpath / main-road encroachment,Physical deterrents (bollards/chains) + sustained pedestrian-priority enforcement
17235_2883,BTP074 - Leprosy Hospital Junction,12.975729125186543,77.55988070406772,Magadi Road,45.43407861236306,51,1660,1.0683734939759035,poi_hospital,4,31.923076923076923,37.477500600647296,True,50,0.0024096385542168,1660,Two-wheeler spillover,Add two-wheeler parking supply; mark legal bays near transit/markets
17228_2890,Dr Rajkumar Puniya Bhoomi Road,13.0077174147541,77.52683530562061,Rajajinagar,45.24575091312016,52,427,1.3875878220140516,poi_mall,11,21.35,47.15161537012055,True,18,0.0,427,Footpath / main-road encroachment,Physical deterrents (bollards/chains) + sustained pedestrian-priority enforcement
17258_2887,Old Madras Road,12.993637709417133,77.66269237894919,Banaswadi,45.24448607579989,53,851,1.163337250293772,poi_mall,14,70.91666666666667,52.45609844530326,True,10,0.0035252643948296,851,Two-wheeler spillover,Add two-wheeler parking supply; mark legal bays near transit/markets
17245_2885,BTP211 - Central Street Junction,12.984106527847953,77.60392456237203,Shivajinagar,44.96005055728195,54,4557,1.0087777046302393,poi_hospital,10,68.01492537313433,33.875169513827736,True,65,0.0269914417379855,4557,Commercial / loading corridor,Designated timed loading bays + off-peak delivery windows; enforce during peak
17238_2883,BTP045 - Danvanthri Road Junction,12.976619661721728,77.57463358081321,Upparpet,44.85735170764494,55,3148,1.0465374841168995,poi_hospital,10,40.88311688311688,33.01794480822345,True,75,0.0050825921219822,3148,Commercial / loading corridor,Designated timed loading bays + off-peak delivery windows; enforce during peak
17234_2892,Mumbai Bengaluru Highway,13.015568815300798,77.55528922606948,Malleshwaram,44.666072700890645,56,253,1.0276679841897234,poi_mall,11,8.161290322580646,42.08928448876428,True,29,0.0,253,Footpath / main-road encroachment,Physical deterrents (bollards/chains) + sustained pedestrian-priority enforcement
17240_2880,"BTP080 - NR Road, SP Road Junction",12.96379579935405,77.58268278925942,Halasuru Gate,43.90698316932548,57,2376,1.0332491582491583,poi_market,10,26.4,30.940315412497277,True,88,0.0,2376,Commercial / loading corridor,Designated timed loading bays + off-peak delivery windows; enforce during peak
17243_2872,"BTP127 - Sagar Hospital, Jayanagar",12.9272225828125,77.5969997359375,Jayanagara,43.75231056863622,58,64,1.8671875,poi_hospital,3,4.923076923076923,49.988819095192405,True,11,0.0,64,(low-volume cell),
17262_2852,Hosur Road,12.835531502380954,77.67927619523809,Electronic City,43.66940315684976,59,42,1.0476190476190477,poi_techpark,2,10.5,63.12322665628728,False,2,0.0,42,(low-volume cell),
17224_2880,Mallathahalli Road,12.9610006008547,77.51156217158119,Jnanabharathi,43.535688142726805,60,468,1.1773504273504274,poi_mall,12,18.72,43.14700638782498,True,23,0.0,468,CBD car parking,Occupancy-responsive paid parking (SFpark-style) + clear signage
17233_2886,"BTP170 - Dr. Bheem Rao Palace, Chord Road",12.989179086719185,77.55099591921686,Rajajinagar,43.42680970842757,61,894,1.417785234899329,poi_hospital,3,17.88,36.26560637868885,True,48,0.0,894,Footpath / main-road encroachment,Physical deterrents (bollards/chains) + sustained pedestrian-priority enforcement
17233_2891,BTP023 - Mahalaxmi Layout Entrance,13.011576655331806,77.5516332043936,Malleshwaram,43.059231236283495,62,2185,1.0787185354691076,poi_mall,10,39.72727272727273,35.04438374154028,True,53,0.0,2185,CBD car parking,Occupancy-responsive paid parking (SFpark-style) + clear signage
17237_2889,Siddavanahalli Krishna Sharma Road,13.002140308587256,77.56965263711912,Malleshwaram,42.95632570895433,63,361,1.2867036011080333,poi_mall,6,20.05555555555556,45.80982639400937,True,16,0.0,361,Commercial / loading corridor,Designated timed loading bays + off-peak delivery windows; enforce during peak
17238_2887,Sri Venkataranga Ayangar Road,12.994143044072398,77.57179276461538,Malleshwaram,42.70508801614224,64,1105,1.0633484162895928,poi_mall,6,20.09090909090909,34.75615911351587,True,53,0.0,1105,CBD car parking,Occupancy-responsive paid parking (SFpark-style) + clear signage
17261_2872,Outer Ring Road,12.926214431509608,77.6770075869807,Bellandur,42.42929974260917,65,932,2.351931330472103,poi_mall,4,25.88888888888889,38.55229527004123,True,34,0.0,932,Commercial / loading corridor,Designated timed loading bays + off-peak delivery windows; enforce during peak
17241_2904,Sahakar Nagar Road,13.071045679175148,77.58792325101433,Kodigehalli,41.79477563380387,66,5447,1.0047732696897376,poi_transit,11,181.56666666666663,39.69326071356432,True,28,0.0,5447,Two-wheeler spillover,Add two-wheeler parking supply; mark legal bays near transit/markets
17261_2866,Amrutha College Road,12.899592489063195,77.67545274344596,Bellandur,41.72491664686226,67,576,1.0026041666666667,poi_school,11,24.0,41.74045495156688,True,22,0.0,576,CBD car parking,Occupancy-responsive paid parking (SFpark-style) + clear signage
17233_2889,"BTP026 - 1st Block Junction, Rajajinagar",13.00212877899225,77.55016989248062,Malleshwaram,41.51751448442377,68,1290,1.9337209302325584,poi_hospital,7,39.09090909090909,38.53683695406215,True,31,0.0,1290,CBD car parking,Occupancy-responsive paid parking (SFpark-style) + clear signage
17236_2883,BTP074 - Leprosy Hospital Junction,12.97524047835572,77.56435361286667,Magadi Road,41.39822548413397,69,147,1.5476190476190477,poi_hospital,4,5.653846153846154,40.65933075523029,True,24,0.0,147,(low-volume cell),
17238_2868,"BTP159 - JP Nagar Metro, ORR",12.907613039080122,77.573174028369,J.P. Nagar,41.25520292309933,70,94,2.654255319148936,poi_metro,3,3.9166666666666665,41.270566307023984,True,22,0.0,94,(low-volume cell),
17277_2876,Muthsandra Main Road,12.94268272079208,77.74775398217822,Whitefield,41.16284298220671,71,101,1.9603960396039604,poi_transit,13,5.611111111111111,43.8972062851662,True,16,0.0,101,(low-volume cell),
17238_2876,BTP108 - Tagore Park Junction,12.943988510849575,77.57143149635606,Basavanagudi,40.98549486587084,72,1921,1.026028110359188,poi_market,11,45.73809523809524,35.82331664445749,True,40,0.0,1921,Two-wheeler spillover,Add two-wheeler parking supply; mark legal bays near transit/markets
17234_2885,BTP061 - Bhashyam Circle,12.985391305132936,77.55449203228085,Rajajinagar,40.86477753750096,73,1102,1.6569872958257714,poi_market,9,27.55,36.164393117979216,True,38,0.0,1102,CBD car parking,Occupancy-responsive paid parking (SFpark-style) + clear signage
17240_2881,"BTP080 - NR Road, SP Road Junction",12.965241676754385,77.58326652631578,Halasuru Gate,40.73077622516653,74,1824,1.168859649122807,poi_market,10,35.07692307692308,33.60327236536471,True,50,0.0021929824561403,1824,Two-wheeler spillover,Add two-wheeler parking supply; mark legal bays near transit/markets
17262_2930,Unnamed Road,13.186768172025536,77.68023541271039,Chikkajala,40.66975765524693,75,1723,1.0,none,4,53.84375,37.7279351167485,True,30,0.012188044109112,1723,Footpath / main-road encroachment,Physical deterrents (bollards/chains) + sustained pedestrian-priority enforcement
17253_2882,Domlur Inner Ring Road,12.969774752696994,77.64088706397912,Jeevanbheemanagar,40.61099996440111,76,730,2.243150684931507,poi_hospital,7,19.210526315789476,36.3728535718301,True,36,0.0013698630136986,730,Two-wheeler spillover,Add two-wheeler parking supply; mark legal bays near transit/markets
17266_2876,Outer Ring Road,12.944087994569776,77.69784033488705,HAL Old Airport,40.59168094779602,77,455,2.435164835164835,none,6,15.166666666666666,38.5506597470409,True,28,0.0,455,Footpath / main-road encroachment,Physical deterrents (bollards/chains) + sustained pedestrian-priority enforcement
17240_2873,"BTP188 - 27th Cross, 4th Main, Jayanagar",12.92999856082996,77.58227205283401,Jayanagara,40.568460686831074,78,988,1.9003036437246963,poi_transit,8,22.454545454545453,35.036577612717984,True,42,0.0,988,Two-wheeler spillover,Add two-wheeler parking supply; mark legal bays near transit/markets
17246_2885,BTP051 - Safina Plaza Junction,12.983139383944154,77.60943045148342,Shivajinagar,40.39748847945066,79,2865,1.0,poi_market,10,48.559322033898304,32.238606885747046,True,57,0.000349040139616,2865,Two-wheeler spillover,Add two-wheeler parking supply; mark legal bays near transit/markets
17255_2853,Neeladri Road,12.841389366849317,77.64837855260274,Electronic City,40.258328807234165,80,365,1.0424657534246575,poi_techpark,12,52.142857142857146,52.09469474395178,True,5,0.0,365,Two-wheeler spillover,Add two-wheeler parking supply; mark legal bays near transit/markets
17244_2874,BTP126 - Dairy Circle,12.936557730964468,77.60164844162436,Mico Layout,40.2300954102546,81,197,2.50253807106599,poi_school,7,16.416666666666668,46.7294801950429,True,10,0.0,197,(low-volume cell),
17234_2884,"BTP062 - Basava Mantapa, Dr. Rajkumar Road",12.979880821343327,77.55474559971711,Magadi Road,40.12977731561765,82,380,2.335526315789474,poi_market,12,8.26086956521739,34.25903911819591,True,44,0.0,380,Footpath / main-road encroachment,Physical deterrents (bollards/chains) + sustained pedestrian-priority enforcement
17265_2884,Outer Ring Road,12.97923981259416,77.69509384397507,Mahadevapura,40.0823621892192,83,508,1.7106299212598426,poi_mall,3,29.88235294117647,43.27595930153289,True,15,0.0,508,Footpath / main-road encroachment,Physical deterrents (bollards/chains) + sustained pedestrian-priority enforcement
17254_2853,Neeladri Road,12.841849818014706,77.64558848455883,Electronic City,39.95584308463655,84,1632,1.0683210784313726,poi_techpark,13,108.8,44.3052624548436,True,13,0.0,1632,Two-wheeler spillover,Add two-wheeler parking supply; mark legal bays near transit/markets
17230_2895,Mumbai Bengaluru Highway,13.030301699836118,77.53695527516565,Yeshwanthpura,39.891130452580185,85,715,1.1426573426573428,poi_school,1,21.666666666666668,36.85603782310304,True,31,0.0069930069930069,715,Footpath / main-road encroachment,Physical deterrents (bollards/chains) + sustained pedestrian-priority enforcement
17266_2875,Panathur Main Road,12.9381659084905,77.6987653585904,HAL Old Airport,39.85539504686343,86,581,1.96815834767642,poi_market,6,13.204545454545457,34.420745036999904,True,42,0.0,581,Footpath / main-road encroachment,Physical deterrents (bollards/chains) + sustained pedestrian-priority enforcement
17233_2887,"BTP011 - RR Kalyana Mantapa, Dr. Rajkumar Road",12.993380086887418,77.5524192765563,Rajajinagar,39.785464741757536,87,755,1.8728476821192053,poi_hospital,3,68.63636363636364,47.04165039305797,True,9,0.0,755,Commercial / loading corridor,Designated timed loading bays + off-peak delivery windows; enforce during peak
17261_2853,Hosur Road,12.84049927542277,77.67686388359986,Electronic City,39.77125437253213,88,419,1.002386634844869,poi_techpark,8,24.647058823529413,42.18286904732782,True,15,0.0310262529832935,419,Footpath / main-road encroachment,Physical deterrents (bollards/chains) + sustained pedestrian-priority enforcement
17262_2872,Outer Ring Road,12.927547700411052,77.68012265638242,Bellandur,39.70668723308826,89,1047,2.061604584527221,none,2,30.794117647058822,36.58901368164249,True,32,0.0,1047,Commercial / loading corridor,Designated timed loading bays + off-peak delivery windows; enforce during peak
17241_2872,"BTP226 - 33rd Cross, 11th Main, Jayanagar",12.92679837808765,77.58604449501992,Jayanagara,39.46587864489717,90,502,2.1115537848605577,poi_transit,8,15.212121212121213,36.63249473081539,True,31,0.0,502,Footpath / main-road encroachment,Physical deterrents (bollards/chains) + sustained pedestrian-priority enforcement
17237_2883,BTP048 - Shanthala Junction,12.97696599139963,77.57073743693086,Chamarajpet,39.35463579461371,91,1329,1.0011286681715577,poi_transit,7,34.07692307692308,35.03316836617305,True,37,0.000752445447705,1329,Footpath / main-road encroachment,Physical deterrents (bollards/chains) + sustained pedestrian-priority enforcement
17270_2877,Vibgyor High School Road,12.95041891727426,77.71762887953903,Whitefield,39.28948807166935,92,81,1.0,poi_school,8,16.2,54.32220112242534,True,3,0.0,81,(low-volume cell),
17253_2863,Hosur Road,12.88563915065384,77.64147282822151,Hulimavu,38.92161867267878,93,547,1.6325411334552102,poi_techpark,2,109.4,53.81357969568903,True,3,0.0,547,Commercial / loading corridor,Designated timed loading bays + off-peak delivery windows; enforce during peak
17234_2887,"BTP011 - RR Kalyana Mantapa, Dr. Rajkumar Road",12.993418526447334,77.5544062025653,Rajajinagar,38.65969403394927,94,870,1.5402298850574712,poi_hospital,3,39.54545454545455,39.41535836741741,True,20,0.0011494252873563,870,Commercial / loading corridor,Designated timed loading bays + off-peak delivery windows; enforce during peak
17242_2896,Bellary Road,13.035491096948162,77.5891306579653,Hebbala,38.61343734388382,95,2133,1.0829817158931083,poi_hospital,3,71.1,36.64966865854367,True,28,0.0009376465072667,2133,Commercial / loading corridor,Designated timed loading bays + off-peak delivery windows; enforce during peak
17246_2872,Thavarekere Main Road,12.9263718845679,77.6090041771605,Mico Layout,38.55304935010311,96,162,1.92283950617284,none,3,23.142857142857142,49.88804545163415,True,5,0.0,162,(low-volume cell),
17235_2886,"BTP015 - Suguna Hospital, Dr. Rajkumar Road",12.988365162352942,77.55917983764705,Rajajinagar,38.55172596216951,97,85,1.994117647058824,poi_hospital,2,8.5,46.47050513799275,True,8,0.0,85,(low-volume cell),
17243_2870,"BTP202 - East End Main Road, Jayanagar",12.91715847820513,77.59614200897437,Jayanagara,38.51433115805282,98,234,2.230769230769231,none,2,12.31578947368421,40.59169709755327,True,17,0.0,234,Footpath / main-road encroachment,Physical deterrents (bollards/chains) + sustained pedestrian-priority enforcement
17243_2873,"BTP127 - Sagar Hospital, Jayanagar",12.9285018,77.597355,Jayanagara,38.5,99,1,2.0,poi_hospital,11,0.3333333333333333,59.06220513255561,False,1,0.0,1,(low-volume cell),
17253_2884,Chinmaya Mission Hospital Road,12.978954506098471,77.64034140106072,Jeevanbheemanagar,38.45663587651884,100,393,1.0648854961832062,poi_hospital,9,12.28125,35.96251495982032,True,30,0.0,393,Footpath / main-road encroachment,Physical deterrents (bollards/chains) + sustained pedestrian-priority enforcement
17232_2882,BTP020 - Hosahalli Metro Station,12.971289669438669,77.54653032848233,Vijayanagara,38.39261899493059,101,481,1.807692307692308,poi_metro,4,20.041666666666668,38.40691635632259,True,22,0.0,481,Two-wheeler spillover,Add two-wheeler parking supply; mark legal bays near transit/markets
17235_2884,BTP010 - Rajajinagar Entrance,12.980826530706809,77.5584499404864,Magadi Road,38.37792961535656,102,446,2.2769058295964126,none,12,9.10204081632653,32.222224277749525,True,47,0.0,446,Footpath / main-road encroachment,Physical deterrents (bollards/chains) + sustained pedestrian-priority enforcement
17242_2899,Kempapura Main Road,13.049392489952153,77.59303444497607,Hebbala,38.36619893722083,103,209,1.5933014354066986,poi_mall,3,12.294117647058824,41.42305924794665,True,15,0.0,209,Two-wheeler spillover,Add two-wheeler parking supply; mark legal bays near transit/markets
17257_2882,Pusa Thippasandra Main Road,12.971751408802024,77.65809020342515,Jeevanbheemanagar,38.04353841531356,104,1235,1.802834008097166,none,7,47.5,37.36451969711529,True,24,0.0,1235,Two-wheeler spillover,Add two-wheeler parking supply; mark legal bays near transit/markets
17238_2867,"BTP159 - JP Nagar Metro, ORR",12.904004488888887,77.57332832777779,J.P. Nagar,37.98381092060675,105,18,3.388888888888889,poi_metro,3,3.6,52.51695345232088,False,3,0.0,18,(low-volume cell),
17247_2884,Gangadhara Chetty Road,12.981009421094791,77.61322855053405,Shivajinagar,37.95635603748393,106,1498,1.048064085447263,poi_market,10,34.04545454545455,32.780657478457115,True,42,0.0,1498,CBD car parking,Occupancy-responsive paid parking (SFpark-style) + clear signage
17247_2874,BTP135 - UCO Bank Junction,12.935375780401415,77.61457697166469,Adugodi,37.92815719451279,107,847,1.7497048406139315,poi_school,11,14.60344827586207,28.304447734088143,True,56,0.0909090909090909,847,Footpath / main-road encroachment,Physical deterrents (bollards/chains) + sustained pedestrian-priority enforcement
17241_2879,BTP192 - Urvashi Theater,12.957694067405766,77.58631474478935,Wilson Garden,37.90972761449565,108,451,1.8215077605321508,none,8,9.595744680851064,32.181691821823755,True,45,0.0,451,CBD car parking,Occupancy-responsive paid parking (SFpark-style) + clear signage
17241_2873,BTP225 - Geetha Junction,12.93023527353846,77.58573306523077,Jayanagara,37.48990167093277,109,325,1.7707692307692309,poi_transit,9,10.833333333333334,35.3924890675986,True,28,0.0092307692307692,325,CBD car parking,Occupancy-responsive paid parking (SFpark-style) + clear signage
17238_2886,BTP054 - Shivananda Circle,12.989602811996251,77.57327333992502,Sheshadripuram,37.393598572448994,110,1067,1.0890346766635426,poi_mall,11,28.83783783783784,33.74653931051073,True,35,0.0,1067,CBD car parking,Occupancy-responsive paid parking (SFpark-style) + clear signage
17242_2878,BTP103 - Shanti Nagar TTMC,12.953639640949556,77.59155668397626,Wilson Garden,37.3411625244928,111,337,1.3204747774480712,poi_transit,9,6.017857142857143,30.24092236367407,True,54,0.0,337,CBD car parking,Occupancy-responsive paid parking (SFpark-style) + clear signage
17246_2873,BTP140 - Madiwala Check Post,12.930620285538462,77.60923581753846,Mico Layout,37.31092731195842,112,325,1.7,none,2,27.08333333333333,43.33870504414527,True,10,0.0,325,Footpath / main-road encroachment,Physical deterrents (bollards/chains) + sustained pedestrian-priority enforcement
17254_2931,Bengaluru Bellary Road,13.191237390181044,77.64621057289669,Chikkajala,37.05682398742472,113,939,1.0031948881789137,none,1,32.37931034482759,35.47770398359343,True,27,0.0,939,Footpath / main-road encroachment,Physical deterrents (bollards/chains) + sustained pedestrian-priority enforcement
17233_2890,BTP023 - Mahalaxmi Layout Entrance,13.007716176420692,77.54868942780254,Rajajinagar,36.89706306744821,114,709,1.4090267983074751,poi_school,10,19.16216216216216,33.29843173118513,True,35,0.0,709,Two-wheeler spillover,Add two-wheeler parking supply; mark legal bays near transit/markets
17241_2881,BTP076 - Hudson Circle,12.967144615018848,77.58708140782751,Halasuru Gate,36.85347453636669,115,848,1.321933962264151,none,4,16.627450980392158,30.58686497025585,True,49,0.0011792452830188,848,CBD car parking,Occupancy-responsive paid parking (SFpark-style) + clear signage
17258_2856,Hosur Road,12.85511728014375,77.66386083116288,Electronic City,36.73949959220276,116,113,1.1238938053097345,poi_techpark,11,8.071428571428571,41.3337742014888,True,12,0.0,113,(low-volume cell),
17251_2868,Hosapalya Main Road,12.906596245446144,77.63100061675283,HSR Layout,36.73400697183845,117,619,1.9240710823909533,none,13,36.41176470588236,39.624405441445774,True,15,0.0016155088852988,619,Commercial / loading corridor,Designated timed loading bays + off-peak delivery windows; enforce during peak
17256_2887,Railway Line Road,12.99271922142857,77.65316993124999,Banaswadi,36.72192925790928,118,112,1.3125,poi_transit,7,37.333333333333336,56.33449658945023,False,1,0.0,112,(low-volume cell),
17234_2880,BTP091 - Sirsi Circle,12.963972360721868,77.55498793375797,Magadi Road,36.66295433388868,119,471,1.8864118895966029,none,2,12.394736842105264,32.772111668004946,True,36,0.0042462845010615,471,Footpath / main-road encroachment,Physical deterrents (bollards/chains) + sustained pedestrian-priority enforcement
17248_2882,BTP143 - ASC Junction,12.97220031321952,77.61827235108028,Halasur,36.64221041412125,120,881,1.0096481271282634,poi_mall,4,21.48780487804878,32.17374924357138,True,39,0.0022701475595913,881,Commercial / loading corridor,Designated timed loading bays + off-peak delivery windows; enforce during peak
17244_2910,Jakkur Main Road,13.097100856167978,77.59949898018372,Yelahanka,36.60109742742848,121,762,1.8274278215223096,none,2,25.4,34.76072979356873,True,28,0.0,762,Commercial / loading corridor,Designated timed loading bays + off-peak delivery windows; enforce during peak
17253_2880,"BTP148 - 17th Main, Doopanahalli Bus Stop",12.962581994760075,77.64117548017775,Jeevanbheemanagar,36.56309956078421,122,320,1.9046875,none,8,10.32258064516129,34.383658770388,True,29,0.003125,320,Footpath / main-road encroachment,Physical deterrents (bollards/chains) + sustained pedestrian-priority enforcement
17239_2899,Bhadrappa Flyover,13.04753939746544,77.57612850426268,Kodigehalli,36.40603081115652,123,868,1.9493087557603688,none,3,31.0,35.14396916443832,True,26,0.0,868,Two-wheeler spillover,Add two-wheeler parking supply; mark legal bays near transit/markets
17235_2892,CV Raman Road,13.01815836509022,77.55867374414026,Yeshwanthpura,36.32490326265952,124,87,1.0459770114942528,poi_mall,2,4.833333333333333,38.73789214459619,True,16,0.0,87,(low-volume cell),
17244_2884,BTP042 - Minsk Square Junction (CTO),12.981226883620057,77.5987366853274,Shivajinagar,36.27749457682796,125,2112,1.0002367424242424,poi_market,4,40.61538461538461,29.957010830024963,True,50,0.0009469696969696,2112,Two-wheeler spillover,Add two-wheeler parking supply; mark legal bays near transit/markets
17265_2874,Embassy Tech Square Main Road,12.936371645568016,77.69299402370049,HAL Old Airport,36.22503924461945,126,334,2.053892215568862,poi_school,3,9.027027027027026,32.691951498726326,True,35,0.0,334,Footpath / main-road encroachment,Physical deterrents (bollards/chains) + sustained pedestrian-priority enforcement
17267_2879,HAL Airport Road,12.957142372628134,77.70273660578088,HAL Old Airport,36.12194032652143,127,561,1.2192513368983957,none,3,12.195652173913045,30.718991133612,True,44,0.0053475935828877,561,Footpath / main-road encroachment,Physical deterrents (bollards/chains) + sustained pedestrian-priority enforcement
17241_2878,BTP192 - Urvashi Theater,12.95485439043716,77.5857293237705,Wilson Garden,36.11440716464489,128,366,1.7650273224043715,none,3,7.32,30.15903962612627,True,48,0.0,366,CBD car parking,Occupancy-responsive paid parking (SFpark-style) + clear signage
17249_2882,Old Madras Road,12.97315359,77.62184596470588,Halasur,36.08910548832282,129,170,1.0029411764705882,poi_mall,4,11.333333333333334,40.01760861443286,True,13,0.0,170,(low-volume cell),
17248_2872,BTP137 - Madiwala Traffic PS Junction,12.925349607114914,77.61877331153423,Madiwala,35.99505324420404,130,613,2.0831973898858074,none,1,26.65217391304348,36.250008565453,True,21,0.0048939641109298,613,Commercial / loading corridor,Designated timed loading bays + off-peak delivery windows; enforce during peak
17241_2896,Bellary Road,13.034862836400473,77.588808467939,Hebbala,35.98029152802702,131,1092,1.2765567765567765,poi_hospital,4,43.68,35.55797053739899,True,23,0.0045787545787545,1092,Two-wheeler spillover,Add two-wheeler parking supply; mark legal bays near transit/markets
17266_2891,MBT Road,13.010640842186731,77.69776091194103,K.R. Pura,35.918983206763656,132,407,1.160933660933661,none,11,8.847826086956522,30.66425814148324,True,44,0.0,407,Footpath / main-road encroachment,Physical deterrents (bollards/chains) + sustained pedestrian-priority enforcement
17240_2882,BTP038 - Mysore Bank Junction,12.97264306925795,77.58097902991756,Upparpet,35.90260728096577,133,849,1.0447585394581862,poi_hospital,9,13.265625,27.82881477814444,True,62,0.0082449941107184,849,Commercial / loading corridor,Designated timed loading bays + off-peak delivery windows; enforce during peak
17231_2883,BTP020 - Hosahalli Metro Station,12.974137647126437,77.54152242643679,Vijayanagara,35.895784488713154,134,87,1.7413793103448276,poi_metro,9,5.4375,39.262057810058735,True,14,0.0,87,(low-volume cell),
17260_2888,Outer Ring Road,12.99797689082136,77.67133727882731,Banaswadi,35.831401232516406,135,142,1.971830985915493,none,1,6.761904761904762,36.93908254674419,True,19,0.0,142,(low-volume cell),
17255_2882,Sir CV Raman Hospital Road,12.97041001796264,77.6480908226766,Jeevanbheemanagar,35.77876029136083,136,155,1.5483870967741935,poi_hospital,7,5.961538461538462,35.140164383521096,True,24,0.0,155,(low-volume cell),
17252_2865,Hosur Road,12.893652738641682,77.6369158275452,Hulimavu,35.72650958546118,137,446,1.2556053811659194,poi_metro,2,40.54545454545455,42.24241150863221,True,9,0.0,446,CBD car parking,Occupancy-responsive paid parking (SFpark-style) + clear signage
17259_2887,Old Madras Road,12.99574600870316,77.66774475722114,Mahadevapura,35.65102378576014,138,446,1.0493273542600896,none,10,24.77777777777778,38.01924823504943,True,16,0.0,446,Footpath / main-road encroachment,Physical deterrents (bollards/chains) + sustained pedestrian-priority enforcement
17250_2868,Hosur Road,12.907095103639538,77.62871247242914,HSR Layout,35.63932982919431,139,488,1.5686475409836065,poi_techpark,11,23.23809523809524,36.74107350500609,True,19,0.0,488,Footpath / main-road encroachment,Physical deterrents (bollards/chains) + sustained pedestrian-priority enforcement
17230_2886,BTP208 - Havanur Circle,12.988462269525185,77.53764819807144,Vijayanagara,35.51570915147216,140,727,1.3872077028885832,none,10,17.73170731707317,31.23409781367581,True,39,0.0,727,CBD car parking,Occupancy-responsive paid parking (SFpark-style) + clear signage
17265_2873,BSR Paradise Road,12.931082241214328,77.69499662712887,HAL Old Airport,35.500876475837536,141,330,1.1333333333333333,poi_school,4,15.714285714285714,36.59834004573299,True,19,0.0,330,Footpath / main-road encroachment,Physical deterrents (bollards/chains) + sustained pedestrian-priority enforcement
17243_2882,BTP063 - Siddalingaiah Circle,12.971444181628392,77.59708537515658,Cubbon Park,35.472677173103854,142,958,1.0005219206680585,poi_mall,11,12.282051282051285,26.11951457040861,True,76,0.0,958,CBD car parking,Occupancy-responsive paid parking (SFpark-style) + clear signage
17243_2861,Shri Ramalingeshwara Cave Temple Road,12.876283388929558,77.5959759832382,Hulimavu,35.39327658220416,143,531,1.2457627118644068,poi_mall,6,17.129032258064516,33.35143649260673,True,29,0.0,531,Two-wheeler spillover,Add two-wheeler parking supply; mark legal bays near transit/markets
17268_2883,ITPL Main Road,12.97637684,77.71023085714286,Mahadevapura,35.35349038890884,144,35,1.9714285714285715,poi_techpark,3,5.833333333333333,47.15632232174778,False,4,0.0,35,(low-volume cell),
17269_2883,ITPL Main Road,12.975748989617486,77.71164640382513,Mahadevapura,35.15871991195846,145,183,1.6256830601092895,poi_techpark,3,22.875,44.31140590144128,True,6,0.0,183,(low-volume cell),
17238_2895,80 Feet Road,13.028050176855896,77.57346002037846,Sadashivanagar,35.0200326368675,146,687,1.0960698689956332,poi_hospital,11,27.48,34.70737770196921,True,23,0.0,687,CBD car parking,Occupancy-responsive paid parking (SFpark-style) + clear signage
17229_2893,Dr Rajkumar Puniya Bhoomi Road,13.020356235103248,77.53211936017699,Rajajinagar,35.017622326875454,147,339,1.28023598820059,poi_school,10,11.689655172413794,33.52539978989432,True,27,0.0,339,Footpath / main-road encroachment,Physical deterrents (bollards/chains) + sustained pedestrian-priority enforcement
17242_2884,BTP047 - Vidhan Soudha Metro Station,12.979682731753554,77.5922555336493,Cubbon Park,34.939424189851536,148,211,1.0,poi_metro,11,4.586956521739131,29.828002549655828,True,44,0.0,211,Footpath / main-road encroachment,Physical deterrents (bollards/chains) + sustained pedestrian-priority enforcement
17235_2885,BTP010 - Rajajinagar Entrance,12.984449262619808,77.56006034249201,Rajajinagar,34.80165219645816,149,313,2.1629392971246006,poi_hospital,10,10.433333333333334,33.05176383766789,True,28,0.0,313,Footpath / main-road encroachment,Physical deterrents (bollards/chains) + sustained pedestrian-priority enforcement
17253_2881,"BTP148 - 17th Main, Doopanahalli Bus Stop",12.966661693413172,77.64149746706586,Jeevanbheemanagar,34.72933066178513,150,334,2.372754491017964,none,13,11.133333333333333,32.47263387607566,True,28,0.0239520958083832,334,Footpath / main-road encroachment,Physical deterrents (bollards/chains) + sustained pedestrian-priority enforcement
17258_2871,Outer Ring Road,12.920988901190006,77.66525189964429,Bellandur,34.7251051720846,151,244,2.165983606557377,none,11,24.4,41.85787115991122,True,8,0.0,244,Two-wheeler spillover,Add two-wheeler parking supply; mark legal bays near transit/markets
17268_2885,ITPL Main Road,12.984586745238094,77.70835715952381,Mahadevapura,34.67194604438018,152,84,1.880952380952381,poi_techpark,11,7.636363636363637,40.99551368454495,True,9,0.0,84,(low-volume cell),
17260_2870,Sarjapura Main Road,12.917215266537609,77.67258531029962,Bellandur,34.647640295903095,153,267,1.953183520599251,none,10,10.26923076923077,34.02923314235481,True,24,0.0,267,Footpath / main-road encroachment,Physical deterrents (bollards/chains) + sustained pedestrian-priority enforcement
17249_2871,BTP137 - Madiwala Traffic PS Junction,12.921256548859157,77.62173677970603,Madiwala,34.647592657529664,154,178,1.0,poi_market,0,6.357142857142857,32.72982940881188,True,26,0.0337078651685393,178,(low-volume cell),
17250_2884,Old Madras Road,12.979001011570247,77.6287072214876,Halasur,34.56379957827349,155,242,1.0165289256198349,poi_hospital,9,15.125,37.80516059216252,True,14,0.0,242,Footpath / main-road encroachment,Physical deterrents (bollards/chains) + sustained pedestrian-priority enforcement
17280_2900,MBT Road,13.053489113636363,77.76195114090909,K.R. Pura,34.49933688244024,156,44,2.613636363636364,none,10,4.888888888888889,42.473686012460014,False,7,0.0,44,(low-volume cell),
17244_2886,BTP171 - Indian Express (Balekundri),12.989416300698604,77.59968640309381,Shivajinagar,34.30986205391682,157,1002,1.005489021956088,poi_hospital,4,20.448979591836736,28.61755775325189,True,47,0.0089820359281437,1002,Commercial / loading corridor,Designated timed loading bays + off-peak delivery windows; enforce during peak
17274_2886,Whitefield Road,12.987690504537206,77.73463817731397,Mahadevapura,34.21778950678961,158,551,1.010889292196007,none,4,68.875,43.125527996533165,True,6,0.0,551,Footpath / main-road encroachment,Physical deterrents (bollards/chains) + sustained pedestrian-priority enforcement
17234_2888,BTP008 - Navarang Theatre,12.99826320972477,77.55364140678898,Malleshwaram,34.192875703695805,159,545,1.773394495412844,none,11,17.580645161290324,32.2202868073761,True,29,0.0,545,Two-wheeler spillover,Add two-wheeler parking supply; mark legal bays near transit/markets
17237_2876,BTP215 - Vanivillas Junction,12.944253783062983,77.56917441397552,Basavanagudi,34.11244353092667,160,458,1.3482532751091705,poi_market,4,11.45,30.188732018305807,True,38,0.0,458,CBD car parking,Occupancy-responsive paid parking (SFpark-style) + clear signage
17247_2883,Mahatma Gandhi Road,12.973929553682488,77.61447792782324,Halasur,34.09361397005253,161,611,1.0032733224222583,none,4,16.07894736842105,30.56427803356959,True,36,0.0,611,Commercial / loading corridor,Designated timed loading bays + off-peak delivery windows; enforce during peak
17233_2869,Subramanyapura Main Road,12.911492985170147,77.55208630796342,K.S. Layout,34.08817776853305,162,58,1.793103448275862,none,11,11.6,47.13079603535191,True,3,0.0,58,(low-volume cell),
17249_2883,Old Madras Road,12.974095708262368,77.62308119424503,Halasur,33.89556763893379,163,449,1.0,poi_mall,4,14.966666666666669,32.098590927468635,True,28,0.0044543429844097,449,Commercial / loading corridor,Designated timed loading bays + off-peak delivery windows; enforce during peak
17243_2876,"BTP123 - 10th Cross, Wilson Garden",12.944980887769542,77.59550829639896,Wilson Garden,33.875782614480336,164,386,1.9974093264248705,none,4,9.897435897435898,30.171580302255222,True,37,0.0,386,Two-wheeler spillover,Add two-wheeler parking supply; mark legal bays near transit/markets
17241_2870,"BTP177 - Aurobindo Circle, ORR",12.9163414,77.5858509506329,J.P. Nagar,33.789999557993106,165,79,3.3797468354430378,none,11,3.761904761904762,34.30964525854472,True,19,0.0253164556962025,79,(low-volume cell),
17229_2892,Dr Rajkumar Puniya Bhoomi Road,13.017176050227272,77.53146781068182,Rajajinagar,33.76352358921437,166,440,1.3238636363636365,poi_transit,11,29.33333333333333,37.43887398025237,True,13,0.0,440,Footpath / main-road encroachment,Physical deterrents (bollards/chains) + sustained pedestrian-priority enforcement
17236_2890,Canara Union Road,13.00681005479452,77.5640651219178,Malleshwaram,33.74627647216718,167,73,1.2808219178082192,poi_mall,12,12.166666666666666,45.01253689450619,True,4,0.0,73,(low-volume cell),
17252_2882,12th Main Road,12.969977045833335,77.63705501607143,Jeevanbheemanagar,33.63329591114539,168,168,1.8958333333333333,poi_hospital,7,8.0,34.673025649173645,True,19,0.0,168,(low-volume cell),
17248_2874,BTP135 - UCO Bank Junction,12.935680430560272,77.61670212920204,Adugodi,33.578328984533265,169,589,1.8259762308998304,poi_school,9,12.020408163265309,27.28291636054329,True,47,0.0441426146010186,589,Two-wheeler spillover,Add two-wheeler parking supply; mark legal bays near transit/markets
17277_2899,MBT Road,13.04591089516908,77.75036422028985,K.R. Pura,33.57603212134133,170,207,1.2946859903381642,none,12,9.409090909090908,34.25601034826547,True,20,0.0,207,Commercial / loading corridor,Designated timed loading bays + off-peak delivery windows; enforce during peak
17233_2885,"BTP024 - NPS, Vijayanagar",12.984777459182396,77.55033810119205,Magadi Road,33.562853965820665,171,604,1.354304635761589,poi_market,3,11.615384615384617,27.7348343778375,True,50,0.0,604,Two-wheeler spillover,Add two-wheeler parking supply; mark legal bays near transit/markets
17278_2876,Government School Sorahunase,12.9445675,77.7532548,Whitefield,33.5,172,1,2.0,poi_school,2,0.3333333333333333,51.39178888157437,False,1,0.0,1,(low-volume cell),
17241_2869,"BTP197 - 9th Cross, 24th Main, JP Nagar",12.912235300497816,77.58594364547378,J.P. Nagar,33.4083975901383,173,287,2.1445993031358883,poi_hospital,11,13.666666666666666,34.441174888149924,True,19,0.0,287,Footpath / main-road encroachment,Physical deterrents (bollards/chains) + sustained pedestrian-priority enforcement
17242_2901,4th Cross Road,13.05826925714517,77.59224943247604,Kodigehalli,33.33011652161332,174,287,1.6236933797909407,poi_transit,13,13.666666666666666,34.36047386188174,True,19,0.0,287,CBD car parking,Occupancy-responsive paid parking (SFpark-style) + clear signage
17271_2889,Kodigehalli Main Road,13.003461512413791,77.72348440413793,K.R. Pura,33.278551822218105,175,145,1.993103448275862,none,4,48.333333333333336,51.052068941252685,False,1,0.0,145,(low-volume cell),
17263_2890,MBT Road,13.005726351958412,77.68584629663951,K.R. Pura,33.15773054659274,176,1241,1.000805801772764,none,10,45.96296296296296,32.28173243751565,True,25,0.0,1241,Footpath / main-road encroachment,Physical deterrents (bollards/chains) + sustained pedestrian-priority enforcement
17239_2889,2nd Main Road,13.00310325,77.578479825,Sadashivanagar,33.00470779303671,177,4,2.125,poi_mall,9,0.8,45.632775144581856,False,3,0.0,4,(low-volume cell),
17242_2902,20th Main Road,13.062635271760795,77.59200940431893,Kodigehalli,32.93117108263817,178,301,1.913621262458472,poi_mall,13,20.066666666666663,36.51591519846195,True,13,0.0,301,CBD car parking,Occupancy-responsive paid parking (SFpark-style) + clear signage
17232_2890,BTP023 - Mahalaxmi Layout Entrance,13.008019883625291,77.54826680878588,Rajajinagar,32.930971384029384,179,424,1.8691037735849056,poi_metro,10,21.2,34.31810645480835,True,18,0.0,424,Two-wheeler spillover,Add two-wheeler parking supply; mark legal bays near transit/markets
17244_2865,Bannerghatta Main Road,12.894854966137563,77.59913417830688,J.P. Nagar,32.916703073115826,180,189,1.9947089947089949,poi_school,6,31.5,43.90600879318224,True,4,0.0,189,(low-volume cell),
17255_2886,Railway Line Road,12.991318433333332,77.65174632592591,Banaswadi,32.89898078165496,181,27,1.0,poi_transit,6,6.75,47.5548020013529,False,2,0.0,27,(low-volume cell),
17240_2872,"BTP189 - New Diagonal Road, Jayanagar",12.927691007867132,77.58131758776223,Jayanagara,32.880452046239114,182,572,1.7272727272727273,none,9,21.185185185185187,32.01177939152798,True,25,0.0,572,Two-wheeler spillover,Add two-wheeler parking supply; mark legal bays near transit/markets
17237_2868,"BTP159 - JP Nagar Metro, ORR",12.908250646666666,77.57044086666666,K.S. Layout,32.87759399952602,183,15,2.7,poi_metro,12,3.75,47.52388784640269,False,2,0.0,15,(low-volume cell),
17253_2864,Hosur Road,12.890226477796933,77.63937291399911,HSR Layout,32.8771034669393,184,267,1.1629213483146068,poi_techpark,2,29.666666666666668,40.47648145853776,True,7,0.0,267,Commercial / loading corridor,Designated timed loading bays + off-peak delivery windows; enforce during peak
17231_2888,"BTP206 - Shankara Mutt Circle, Vijayanagar",12.998576128118575,77.54154988025921,Vijayanagara,32.85952702952822,185,751,1.0412782956058588,poi_hospital,11,20.2972972972973,29.65468323350352,True,35,0.0,751,Two-wheeler spillover,Add two-wheeler parking supply; mark legal bays near transit/markets
17238_2879,BTP105 - Shivasankara Circle,12.957990787959869,77.5743348799331,V.V.Puram (C.Pet),32.820412438128635,186,299,1.1672240802675586,poi_school,3,7.292682926829267,28.86373373556022,True,39,0.0,299,Commercial / loading corridor,Designated timed loading bays + off-peak delivery windows; enforce during peak
17231_2899,HMT Main Road,13.047858873267328,77.54279707920792,Jalahalli,32.81663836174466,187,101,1.8564356435643563,poi_school,3,20.2,45.37274769263362,True,3,0.0,101,(low-volume cell),
17226_2897,Jalahalli Cross Road,13.039821011849712,77.5186455251445,Peenya,32.81580763311454,188,346,1.4234104046242777,poi_metro,11,8.871794871794872,29.227510001869337,True,37,0.0,346,Footpath / main-road encroachment,Physical deterrents (bollards/chains) + sustained pedestrian-priority enforcement
17242_2904,RK Road Number 7,13.070783503595472,77.59240142426219,Kodigehalli,32.811490720936334,189,576,1.0026041666666667,poi_techpark,11,14.4,29.037418547793088,True,38,0.0,576,CBD car parking,Occupancy-responsive paid parking (SFpark-style) + clear signage
17232_2878,"BTP095 - Satellite Bus Stand, Mysore Road",12.95444334083169,77.54472014415022,Byatarayanapura,32.75986723096408,190,65,1.1,poi_transit,1,3.25,34.139794965867495,True,18,0.0,65,(low-volume cell),
17226_2879,Gnana Bharathi Road,12.957318605172413,77.51881280421456,Byatarayanapura,32.75685334356511,191,522,1.2231800766283525,none,12,18.0,31.36097002677182,True,27,0.0,522,Footpath / main-road encroachment,Physical deterrents (bollards/chains) + sustained pedestrian-priority enforcement
17242_2897,Hebbal Flyover,13.03905077375,77.58966771291666,Hebbala,32.63110618027377,192,240,2.025,none,4,9.6,32.3397793136131,True,23,0.0,240,Two-wheeler spillover,Add two-wheeler parking supply; mark legal bays near transit/markets
17241_2894,Bellary Road,13.024324488005137,77.58518126625242,R.T. Nagar,32.62583783390433,193,460,1.2934782608695652,none,10,11.794871794871796,29.05831275801218,True,37,0.0,460,CBD car parking,Occupancy-responsive paid parking (SFpark-style) + clear signage
17241_2902,15th Cross Road,13.06170554921875,77.58702822929688,Kodigehalli,32.58936453983687,194,256,1.623046875,poi_transit,13,23.272727272727277,38.53310507155844,True,9,0.0,256,CBD car parking,Occupancy-responsive paid parking (SFpark-style) + clear signage
17250_2869,Hosur Road,12.912188143528835,77.62584404654757,HSR Layout,32.57244716125689,195,409,1.0733496332518335,none,11,19.476190476190474,33.43277427558233,True,19,0.0073349633251833,409,Commercial / loading corridor,Designated timed loading bays + off-peak delivery windows; enforce during peak
17246_2882,Brigade Road,12.972064653012945,77.60858212248391,Ashok Nagar,32.551154991897576,196,433,1.0323325635103926,poi_mall,12,9.41304347826087,27.65073109712091,True,44,0.0069284064665127,433,Commercial / loading corridor,Designated timed loading bays + off-peak delivery windows; enforce during peak
17247_2887,Coles Road,12.995207406199189,77.61396474817073,Pulikeshinagar(F.Town),32.42833745304299,197,984,1.0274390243902438,poi_school,12,28.94117647058824,29.801251733566847,True,32,0.0040650406504065,984,Footpath / main-road encroachment,Physical deterrents (bollards/chains) + sustained pedestrian-priority enforcement
17268_2884,ITPL Main Road,12.979879220967742,77.70948577903225,Mahadevapura,32.37296558202941,198,62,1.75,poi_techpark,4,6.888888888888889,39.8558146235892,True,7,0.0,62,(low-volume cell),
17265_2883,Outer Ring Road,12.977058698830144,77.6962275631116,Mahadevapura,32.372317289619126,199,24,2.3125,poi_mall,5,4.0,43.17987875081445,False,4,0.0,24,(low-volume cell),
17238_2882,BTP043 - Upparpet Junction,12.969933250960397,77.57492686707467,City Market,32.35989094713153,200,316,1.5965189873417722,none,7,7.022222222222222,27.78475372901716,True,43,0.0,316,Commercial / loading corridor,Designated timed loading bays + off-peak delivery windows; enforce during peak
17244_2885,BTP211 - Central Street Junction,12.98430304607595,77.60145916329114,Shivajinagar,32.34844843352587,201,395,1.0,poi_hospital,11,10.97222222222222,29.09106793287851,True,34,0.0151898734177215,395,Footpath / main-road encroachment,Physical deterrents (bollards/chains) + sustained pedestrian-priority enforcement
17265_2872,Doddakannelli Road,12.926580748666144,77.69484434837244,Bellandur,32.324811120618264,202,236,1.125,poi_school,4,9.833333333333334,32.33684883824781,True,22,0.0,236,Footpath / main-road encroachment,Physical deterrents (bollards/chains) + sustained pedestrian-priority enforcement
17259_2871,Outer Ring Road,12.921612359060884,77.66738247914967,Bellandur,32.26083056653046,203,159,2.2358490566037736,poi_techpark,4,10.6,35.772604328075445,True,13,0.0,159,(low-volume cell),
17261_2889,MBT Road,13.000752897026056,77.67695896363244,Banaswadi,32.23870785498565,204,487,1.3316221765913758,none,6,19.48,31.950884276689084,True,23,0.0,487,Footpath / main-road encroachment,Physical deterrents (bollards/chains) + sustained pedestrian-priority enforcement
17234_2889,"BTP001 - 10th Cross, Dr. Rajkumar Road",13.003678367281513,77.5534763802639,Malleshwaram,32.13674259805235,205,304,2.286184210526316,none,6,11.25925925925926,31.28771809354857,True,25,0.0,304,Two-wheeler spillover,Add two-wheeler parking supply; mark legal bays near transit/markets
17242_2900,Bellary Road,13.052096927821522,77.5927770144357,Kodigehalli,32.01830899565993,206,381,1.0288713910761156,poi_mall,11,16.565217391304348,32.34125093962446,True,21,0.0,381,CBD car parking,Occupancy-responsive paid parking (SFpark-style) + clear signage
17238_2880,"BTP083 - AS Char Street, Mysore Road",12.962960092485549,77.57337876531793,V.V.Puram (C.Pet),31.924761608814308,207,173,1.3988439306358382,poi_school,0,4.805555555555555,27.53552784409009,True,34,0.0751445086705202,173,(low-volume cell),
17233_2868,Subramanyapura Main Road,12.909646981961052,77.55011410773042,K.S. Layout,31.83032894388328,208,98,1.9081632653061225,poi_transit,11,8.909090909090908,37.63563441556636,True,9,0.0,98,(low-volume cell),
17237_2895,Padmasri CK Venkata Ramaiah Road,13.029154550967744,77.57072419354839,Sadashivanagar,31.75510437738235,209,155,1.1419354838709677,poi_hospital,8,7.75,33.09270898200923,True,18,0.0,155,(low-volume cell),
17238_2899,Bhadrappa Flyover,13.04744554953271,77.57393254626169,Kodigehalli,31.6892081733847,210,214,2.4649532710280373,none,2,14.266666666666667,35.138757606339595,True,13,0.0,214,Two-wheeler spillover,Add two-wheeler parking supply; mark legal bays near transit/markets
17236_2889,11th Main Road,13.0032037,77.5629567,Malleshwaram,31.59792505136273,211,22,1.9318181818181817,poi_mall,6,4.4,43.68773745690899,False,3,0.0,22,(low-volume cell),
17246_2888,Robertson Road,12.999181357650274,77.61085835396175,Pulikeshinagar(F.Town),31.587856101317964,212,732,1.024590163934426,poi_metro,3,26.142857142857142,30.46634264619322,True,26,0.0013661202185792,732,Footpath / main-road encroachment,Physical deterrents (bollards/chains) + sustained pedestrian-priority enforcement
17257_2886,Old Madras Road,12.99114067467248,77.6570910778538,Banaswadi,31.585635159344783,213,21,1.0,poi_market,1,3.0,40.87213927330788,False,5,0.0,21,(low-volume cell),
17255_2880,5th Main Road,12.96116959536511,77.64905762264567,Jeevanbheemanagar,31.567748973725607,214,236,1.5741525423728813,poi_hospital,5,18.153846153846157,35.41081018966681,True,11,0.0338983050847457,236,Commercial / loading corridor,Designated timed loading bays + off-peak delivery windows; enforce during peak
17239_2885,BTP054 - Shivananda Circle,12.9839083783394,77.57782177742551,High ground,31.48336243711133,215,486,1.1069958847736625,none,8,8.678571428571429,25.496954428872005,True,54,0.0,486,CBD car parking,Occupancy-responsive paid parking (SFpark-style) + clear signage
17248_2883,Murphy Road,12.974961594198458,77.61983413199638,Halasur,31.39381017915027,216,326,1.0076687116564418,poi_mall,4,9.055555555555555,28.52518064215877,True,34,0.0,326,Commercial / loading corridor,Designated timed loading bays + off-peak delivery windows; enforce during peak
17233_2884,"BTP024 - NPS, Vijayanagar",12.980932119384615,77.54919637261538,Magadi Road,31.36323500426611,217,325,1.4861538461538462,poi_market,3,12.5,30.803449439667432,True,24,0.0,325,Commercial / loading corridor,Designated timed loading bays + off-peak delivery windows; enforce during peak
17271_2865,Sarjapura Main Road,12.89664486627907,77.72005239651163,Whitefield,31.286823053654107,218,172,1.9244186046511629,none,11,14.333333333333334,36.34137486730581,True,10,0.0,172,(low-volume cell),
17240_2871,"BTP190 - 36th Cross, 4th Main, Jayanagar",12.92138504529576,77.58202844439383,Jayanagara,31.284774248368414,219,258,2.118217054263566,none,3,10.32,30.856650389106843,True,23,0.0077519379844961,258,Two-wheeler spillover,Add two-wheeler parking supply; mark legal bays near transit/markets
17241_2886,BTP032 - Windsor Circle,12.991240683825136,77.5885391220765,High ground,31.218255540606837,220,915,1.0136612021857925,poi_school,3,25.416666666666668,28.36566742128996,True,34,0.0,915,Two-wheeler spillover,Add two-wheeler parking supply; mark legal bays near transit/markets
17240_2888,BTP032 - Windsor Circle,12.997471050107528,77.58313634129031,Sheshadripuram,31.159940203847324,221,465,1.1731182795698925,poi_transit,10,10.813953488372093,27.07121907146512,True,41,0.0,465,CBD car parking,Occupancy-responsive paid parking (SFpark-style) + clear signage
17242_2879,"BTP102 - BMTC Junction, KH Road",12.957451410344827,77.5924393586207,Wilson Garden,31.121511101866385,222,58,1.0689655172413792,poi_transit,10,2.4166666666666665,31.1331007121336,True,22,0.0,58,(low-volume cell),
17256_2886,Old Madras Road,12.991055016666666,77.65386566666668,Banaswadi,31.08058478197095,223,6,1.0,poi_market,7,2.0,47.680204520326086,False,1,0.0,6,(low-volume cell),
17231_2882,BTP028 - Vijayanagar Bus Stand Junction,12.97345192510071,77.54070027794971,Vijayanagara,31.04479804631432,224,38,1.4078947368421053,poi_transit,11,3.8,37.42160463930653,False,8,0.0,38,(low-volume cell),
17262_2869,Sarjapura Main Road,12.912405691515795,77.68102520694,Bellandur,31.010647697694758,225,206,1.9757281553398056,none,9,8.956521739130435,31.323426203656776,True,21,0.0,206,CBD car parking,Occupancy-responsive paid parking (SFpark-style) + clear signage
17238_2878,BTP106 - VV Puram College,12.954090574712644,77.57297575287357,V.V.Puram (C.Pet),30.97394540825339,226,87,1.4252873563218391,poi_school,2,7.909090909090909,36.62306122716798,True,9,0.0,87,(low-volume cell),
17255_2881,Jeevan Bhima Nagar Main Road,12.968559281506923,77.6494616401982,Jeevanbheemanagar,30.89981094306894,227,165,1.9,poi_hospital,3,5.5,29.231197955163317,True,28,0.006060606060606,165,(low-volume cell),
17238_2869,"BTP117 - 9th Cross, Kanakapura Road",12.911723036956522,77.57333005260871,J.P. Nagar,30.8802513440387,228,230,1.934782608695652,none,3,11.5,31.027578391116027,True,18,0.0608695652173913,230,Commercial / loading corridor,Designated timed loading bays + off-peak delivery windows; enforce during peak
17265_2888,Whitefield Road,12.996517981110111,77.69361130700341,Mahadevapura,30.84641149384154,229,285,1.3403508771929824,poi_mall,1,12.391304347826088,31.15753348637092,True,21,0.0,285,Footpath / main-road encroachment,Physical deterrents (bollards/chains) + sustained pedestrian-priority enforcement
17233_2892,1st Main Road,13.01601386122449,77.55005773367347,Rajajinagar,30.82046499830505,230,98,1.8010204081632653,poi_mall,3,16.333333333333332,41.10993753596039,True,4,0.0,98,(low-volume cell),
17252_2884,Chinmaya Mission Hospital Road,12.978767876470588,77.6376699117647,Jeevanbheemanagar,30.753319758026738,231,119,1.184873949579832,poi_hospital,9,5.95,32.04872668306894,True,18,0.0,119,(low-volume cell),
17275_2863,Sarjapura Main Road,12.88738487023546,77.7384770025872,No Police Station,30.74532356909696,232,20,2.425,none,5,3.333333333333333,41.009709993602506,False,4,0.0,20,(low-volume cell),
17258_2857,Hosur Road,12.85656785,77.6634477,Electronic City,30.69905930580252,233,2,1.0,poi_techpark,7,0.6666666666666666,47.09491267781296,False,1,0.0,2,(low-volume cell),
17245_2882,"BTP099 - Cash Pharmacy, Residency Road",12.97040815840486,77.60637315355318,Ashok Nagar,30.671197596102868,234,688,1.0,poi_school,4,14.638297872340424,25.079423045213638,True,45,0.0508720930232558,688,Footpath / main-road encroachment,Physical deterrents (bollards/chains) + sustained pedestrian-priority enforcement
17244_2872,"BTP127 - Sagar Hospital, Jayanagar",12.927547925,77.5999725625,Jayanagara,30.61379809292853,235,8,2.0,poi_hospital,7,1.6,42.32706962462405,False,3,0.0,8,(low-volume cell),
17251_2882,4th Main Road,12.97127561604938,77.63069319012345,Halasur,30.57878848319198,236,81,2.4876543209876543,none,12,7.363636363636363,36.15583446383136,True,9,0.0,81,(low-volume cell),
17243_2899,Kempapura Main Road,13.04932660487805,77.5936674097561,Hebbala,30.566287603265973,237,41,2.0,poi_mall,1,6.833333333333333,40.77090252030816,False,4,0.0,41,(low-volume cell),
17242_2903,20th Main Road,13.064369137198067,77.5904888294686,Kodigehalli,30.484566742919416,238,207,1.8333333333333333,poi_techpark,13,11.5,32.50959403864071,True,16,0.0,207,CBD car parking,Occupancy-responsive paid parking (SFpark-style) + clear signage
17236_2884,BTP010 - Rajajinagar Entrance,12.98128347321017,77.56351044577862,Magadi Road,30.472641073415257,239,249,1.0200803212851406,poi_hospital,11,8.03225806451613,28.71467271930992,True,29,0.0,249,Footpath / main-road encroachment,Physical deterrents (bollards/chains) + sustained pedestrian-priority enforcement
17224_2874,Mysore Road,12.93512802,77.5117178,Jnanabharathi,30.440987424053034,240,10,1.0,poi_school,10,1.6666666666666667,40.6037706311244,False,4,0.0,10,(low-volume cell),
17241_2903,20th Main Road,13.06371427035176,77.58742971055277,Kodigehalli,30.395416593444423,241,199,1.8341708542713568,none,13,28.428571428571427,39.331984112718565,True,5,0.0,199,(low-volume cell),
17241_2880,BTP180 - Swagath Poornima Theatre,12.96182912490566,77.58642424377359,Halasuru Gate,30.346173952436423,242,265,1.3867924528301887,none,9,7.361111111111111,27.573272847477345,True,34,0.0,265,Commercial / loading corridor,Designated timed loading bays + off-peak delivery windows; enforce during peak
17247_2885,Veera Pillai Road,12.98289044832636,77.61256081736403,Shivajinagar,30.188130363903387,243,478,1.00836820083682,poi_market,11,9.56,25.016252260032992,True,48,0.0104602510460251,478,Commercial / loading corridor,Designated timed loading bays + off-peak delivery windows; enforce during peak
17238_2885,BTP057 - Anand Rao Junction,12.98591579,77.5743357069697,Sheshadripuram,30.1675431425042,244,330,1.0121212121212122,poi_transit,3,10.64516129032258,28.42717590495953,True,29,0.0,330,CBD car parking,Occupancy-responsive paid parking (SFpark-style) + clear signage
17263_2854,Huskur Main Road,12.84332339,77.68770356,Electronic City,30.10765409071971,245,10,2.0,none,3,2.0,41.62726777852357,False,3,0.0,10,(low-volume cell),
17222_2886,Magadi Main Road,12.989509975242797,77.50126691332159,Kamakshipalya,30.08268558050848,246,304,1.950657894736842,none,10,13.217391304347826,30.38610450754675,True,21,0.0,304,Two-wheeler spillover,Add two-wheeler parking supply; mark legal bays near transit/markets
17237_2891,Siddavanahalli Krishna Sharma Road,13.0115704,77.56911918863636,Malleshwaram,30.06979142789478,247,44,1.0113636363636365,poi_school,4,2.588235294117647,32.46562824556191,False,15,0.0,44,(low-volume cell),
17232_2868,Subramanyapura Main Road,12.906902350203008,77.5461006411206,K.S. Layout,30.052697916049446,248,130,1.7307692307692308,poi_hospital,12,18.571428571428573,38.88850259197709,True,5,0.0,130,(low-volume cell),
17273_2885,ITPL Main Road,12.98538823076923,77.73019473076923,Whitefield,30.00331554534572,249,13,1.8461538461538465,poi_techpark,7,1.8571428571428568,38.8246012924507,False,5,0.0,13,(low-volume cell),
17266_2887,Whitefield Road,12.994963999352748,77.69794125173954,Mahadevapura,29.94739024812429,250,291,1.1254295532646048,poi_market,11,10.03448275862069,28.671227913775205,True,27,0.0,291,Footpath / main-road encroachment,Physical deterrents (bollards/chains) + sustained pedestrian-priority enforcement
17241_2887,BTP032 - Windsor Circle,12.9922876411985,77.58861082328188,High ground,29.90818663762037,251,793,1.117906683480454,poi_school,4,16.520833333333332,25.24860048788942,True,46,0.0,793,Two-wheeler spillover,Add two-wheeler parking supply; mark legal bays near transit/markets
17246_2871,"BTP163 - 16th Main Road, BTM Layout",12.92110089117647,77.61034371568627,Mico Layout,29.88926213096885,252,102,2.0245098039215685,none,13,17.0,39.86785076953414,True,4,0.0,102,(low-volume cell),
17254_2880,"BTP148 - 17th Main, Doopanahalli Bus Stop",12.960235871274778,77.64466643587112,Jeevanbheemanagar,29.8765214293056,253,331,1.0075528700906344,poi_hospital,4,11.413793103448276,28.603379061521444,True,27,0.0,331,Footpath / main-road encroachment,Physical deterrents (bollards/chains) + sustained pedestrian-priority enforcement
17246_2887,Saunders Road,12.994348384929078,77.60974963492907,Pulikeshinagar(F.Town),29.82940282068554,254,564,1.00177304964539,poi_market,3,19.448275862068964,28.5582683405026,True,27,0.0,564,CBD car parking,Occupancy-responsive paid parking (SFpark-style) + clear signage
17246_2874,BTP136 - Hosur-Tavarkere Road Junction,12.93560284,77.60875972333334,Mico Layout,29.81213058248855,255,150,1.4,none,2,7.894736842105263,31.420121758600477,True,17,0.0,150,(low-volume cell),
17243_2909,Allalasandra Main Road,13.093627214691942,77.59435891706161,Yelahanka,29.748092674914435,256,422,1.930094786729858,poi_mall,5,20.09523809523809,30.667716392002458,True,19,0.0,422,Two-wheeler spillover,Add two-wheeler parking supply; mark legal bays near transit/markets
17267_2874,Panathur Main Road,12.93683079624294,77.70322411268896,HAL Old Airport,29.732285248991708,257,143,1.972027972027972,poi_hospital,9,5.958333333333333,29.74335751335771,True,22,0.0,143,(low-volume cell),
17230_2883,BTP028 - Vijayanagar Bus Stand Junction,12.974051579411764,77.53798393823529,Vijayanagara,29.718128919076243,258,34,1.4411764705882353,poi_transit,11,2.833333333333333,34.51924989478708,False,10,0.0,34,(low-volume cell),
17227_2897,Mumbai Bengaluru Highway,13.037901733333332,77.52185643333333,Peenya,29.61947367085984,259,6,1.5,poi_metro,14,0.8571428571428571,38.32790592844208,False,5,0.0,6,(low-volume cell),
17251_2873,Srinivagilu Main Road,12.93195333618421,77.63200181052632,Adugodi,29.579212187864663,260,608,1.935032894736842,poi_market,2,24.32,29.315132289458063,True,23,0.0,608,CBD car parking,Occupancy-responsive paid parking (SFpark-style) + clear signage
17260_2871,Outer Ring Road,12.923311069230769,77.67219177435898,Bellandur,29.56101757469173,261,78,2.2051282051282053,poi_techpark,4,5.2,32.77890143137934,True,13,0.0,78,(low-volume cell),
17242_2887,BTP032 - Windsor Circle,12.993730659955023,77.58943842993891,High ground,29.48206871666677,262,1334,1.2481259370314843,none,3,30.318181818181817,25.46191724524284,True,42,0.0,1334,Two-wheeler spillover,Add two-wheeler parking supply; mark legal bays near transit/markets
17247_2882,BTP141 - Palmgroove Junction,12.972894434707158,77.61515187136659,Halasur,29.46342194422792,263,461,1.0010845986984815,none,4,15.366666666666667,27.981949203241868,True,28,0.0,461,Commercial / loading corridor,Designated timed loading bays + off-peak delivery windows; enforce during peak
17246_2883,BTP051 - Safina Plaza Junction,12.974526187000084,77.60836436158685,Ashok Nagar,29.44189564307804,264,566,1.0017667844522968,none,10,7.7534246575342465,22.11084085129557,True,71,0.0,566,Commercial / loading corridor,Designated timed loading bays + off-peak delivery windows; enforce during peak
17231_2892,Shankara Nagar Main Road,13.016255332,77.543380572,Rajajinagar,29.38468610893285,265,25,1.66,poi_transit,11,5.0,40.62768203589287,False,3,0.0,25,(low-volume cell),
17232_2899,HMT Main Road,13.048432081395347,77.54769297674419,Jalahalli,29.324284371196143,266,43,1.848837209302325,none,6,10.75,42.38765165275888,False,2,0.0,43,(low-volume cell),
17269_2879,HAL Airport Road,12.956220294166666,77.7137778175,HAL Old Airport,29.31154321831846,267,120,1.35,poi_techpark,2,6.666666666666667,31.25864896521564,True,16,0.0,120,(low-volume cell),
17251_2916,Bagaluru Main Road,13.122238743043477,77.63087987260869,Chikkajala,29.28334241359234,268,115,1.930434782608696,none,13,6.764705882352941,31.616518221182226,True,15,0.0,115,(low-volume cell),
17250_2883,Old Madras Road,12.975842744479047,77.62632867756402,Halasur,29.24712492071777,269,160,1.346875,none,8,5.0,27.238121808928017,True,30,0.00625,160,(low-volume cell),
17277_2875,Varthur Main Road,12.93914850123457,77.74692058395061,Whitefield,29.23146338031132,270,81,1.7345679012345678,poi_transit,11,4.2631578947368425,30.808134831226983,True,17,0.0,81,(low-volume cell),
17277_2881,Whitefield Main Road,12.967084663942824,77.74945675019403,Whitefield,29.17850321658706,271,75,1.9466666666666668,poi_hospital,8,7.5,35.17196052326994,True,8,0.0,75,(low-volume cell),
17278_2885,Whitefield Main Road,12.98342605846154,77.75209436,Whitefield,29.14961082070766,272,65,1.8153846153846156,poi_techpark,9,6.5,35.13713343842087,True,8,0.0,65,(low-volume cell),
17261_2869,Sarjapura Main Road,12.913697857350366,77.67791021733947,Bellandur,29.103023369140157,273,178,1.8286516853932584,poi_school,9,8.090909090909092,29.69241469915683,True,20,0.0,178,(low-volume cell),
17233_2880,"BTP093 - Toll Gate, Mysore Road",12.96378675047619,77.55104888619047,Magadi Road,29.102002330380085,274,210,1.7809523809523808,none,11,8.75,29.112839878206746,True,22,0.0,210,Two-wheeler spillover,Add two-wheeler parking supply; mark legal bays near transit/markets
17236_2888,4th Main Road,12.996416275964911,77.56323587175439,Sheshadripuram,29.088416418726297,275,570,1.8596491228070176,poi_mall,9,47.5,33.756488883487215,True,10,0.0017543859649122,570,Two-wheeler spillover,Add two-wheeler parking supply; mark legal bays near transit/markets
17238_2877,BTP107 - National College Junction,12.949139340086214,77.57309468516284,V.V.Puram (C.Pet),29.034912852770837,276,95,1.168421052631579,poi_school,3,5.0,30.600982863676343,True,17,0.0,95,(low-volume cell),
17266_2883,Outer Ring Road,12.97535205327224,77.69757366033356,Mahadevapura,28.99202110101329,277,30,2.5,none,6,4.285714285714286,37.51597579967353,False,5,0.0,30,(low-volume cell),
17251_2884,Old Madras Road,12.980706333323075,77.63077463650097,Halasur,28.93860422423713,278,90,1.05,poi_metro,8,5.294117647058823,31.244312716382087,True,15,0.0,90,(low-volume cell),
17235_2893,Triveni Road,13.018885520693711,77.55802153970191,Yeshwanthpura,28.895399511055057,279,193,1.0544041450777202,poi_mall,7,8.041666666666666,28.90616012026045,True,22,0.0,193,(low-volume cell),
17257_2855,Road Number 1,12.850803523140495,77.65747107272728,Electronic City,28.890756894329837,280,121,1.0,poi_techpark,12,40.333333333333336,44.32082623708322,False,1,0.0,121,(low-volume cell),
17236_2882,BTP074 - Leprosy Hospital Junction,12.971127759574468,77.56573043617021,Magadi Road,28.890500635351792,281,47,1.9574468085106385,poi_hospital,11,9.4,39.94441422037229,False,3,0.0,47,(low-volume cell),
17240_2879,BTP167 - JC Road Junction,12.957656771684258,77.5816073428677,City Market,28.856889527460165,282,337,1.1112759643916914,none,8,9.628571428571428,26.40286571245673,True,33,0.0,337,Footpath / main-road encroachment,Physical deterrents (bollards/chains) + sustained pedestrian-priority enforcement
17237_2875,BTP109 - Dewan Madhava Rao Junction,12.940916660986549,77.56687073497758,Basavanagudi,28.822696687841,283,223,1.8856502242152464,poi_market,3,8.25925925925926,28.061226364606053,True,25,0.0,223,CBD car parking,Occupancy-responsive paid parking (SFpark-style) + clear signage
17261_2868,Amrutha College Road,12.908057347039469,77.67595449936469,Bellandur,28.79479142789478,284,44,1.0227272727272727,poi_school,5,4.0,34.0464669769297,False,9,0.0,44,(low-volume cell),
17242_2875,8th Main Road,12.938284772115384,77.59263543076923,Wilson Garden,28.794236484482795,285,104,1.9855769230769231,poi_school,8,6.933333333333334,31.928651885270256,True,13,0.0,104,(low-volume cell),
17261_2867,Amrutha College Road,12.903377862857145,77.67586590142858,Bellandur,28.791397950558267,286,70,1.1,poi_school,14,4.375,31.491428502493488,True,14,0.0,70,(low-volume cell),
17223_2886,Magadi Main Road,12.98974409869281,77.5060438,Kamakshipalya,28.78103574383437,287,153,1.8529411764705883,none,11,6.652173913043479,29.07132601599353,True,21,0.0,153,(low-volume cell),
17227_2889,Dr Rajkumar Puniya Bhoomi Road,13.001860737142856,77.52559310999999,Rajajinagar,28.741397950558262,288,70,1.5714285714285714,none,11,17.5,41.5451012860263,False,2,0.0,70,(low-volume cell),
17239_2878,BTP119 - Minerva Circle,12.953259960263646,77.57823546983035,V.V.Puram (C.Pet),28.72151297613473,289,172,1.005813953488372,poi_school,13,6.615384615384615,28.20887809152264,True,24,0.0,172,(low-volume cell),
17227_2877,BTP098 - Nayandahalli Junction,12.949474807638888,77.52281158472222,Byatarayanapura,28.721022094065624,290,144,1.2256944444444444,none,7,16.0,35.359742668015706,True,7,0.0,144,(low-volume cell),
17250_2874,Srinivagilu Main Road,12.936833346178862,77.62730031593496,Adugodi,28.699531825177875,291,123,2.008130081300813,poi_hospital,12,7.235294117647059,30.986192015736584,True,15,0.0,123,(low-volume cell),
17261_2865,Amrita College Road,12.89522154125,77.67582984625,Bellandur,28.659942333847205,292,80,1.025,poi_school,4,20.0,41.4273588626272,False,2,0.0,80,(low-volume cell),
17250_2882,BTP144 - Commando Hospital Junction,12.972074801136364,77.62648010284092,Halasur,28.65073525994328,293,176,1.8778409090909087,poi_hospital,4,10.352941176470589,30.933507541673453,True,15,0.0,176,(low-volume cell),
17231_2895,Mumbai Bengaluru Highway,13.028240834599895,77.54139226169025,Yeshwanthpura,28.60500143641216,294,311,1.0514469453376205,none,10,9.147058823529411,26.359005544237743,True,32,0.0,311,Footpath / main-road encroachment,Physical deterrents (bollards/chains) + sustained pedestrian-priority enforcement
17254_2879,"BTP148 - 17th Main, Doopanahalli Bus Stop",12.959000619169458,77.645548736276,Jeevanbheemanagar,28.60438464829177,295,465,1.0258064516129033,none,3,35.76923076923077,32.68168905661813,True,11,0.0,465,Commercial / loading corridor,Designated timed loading bays + off-peak delivery windows; enforce during peak
17260_2861,Amrutha College Road,12.87599570909091,77.67116537727273,Electronic City,28.558745298753784,296,66,1.0606060606060606,poi_school,11,5.076923076923077,32.6295442176822,True,11,0.0,66,(low-volume cell),
17231_2890,Shreepuram Main Road,13.008422967741936,77.54300160552995,Rajajinagar,28.53108289675676,297,217,1.7258064516129032,poi_transit,3,12.764705882352942,30.80432177225329,True,15,0.0,217,Two-wheeler spillover,Add two-wheeler parking supply; mark legal bays near transit/markets
17276_2878,Varthur Main Road,12.95358454,77.74455808857142,Whitefield,28.529680865099312,298,35,2.0,none,1,11.666666666666666,43.76690554859331,False,1,0.0,35,(low-volume cell),
17251_2869,17th Cross Road,12.912507099444248,77.63335795672506,HSR Layout,28.51423472768592,299,401,1.5224438902743145,poi_market,11,23.58823529411765,30.78613121063985,True,15,0.0,401,Two-wheeler spillover,Add two-wheeler parking supply; mark legal bays near transit/markets
17236_2864,Konanakunte Main Road,12.88884324838926,77.56291492983222,Thalagattapura,28.508873108638067,300,298,1.889261744966443,none,11,11.037037037037036,27.755693728644225,True,25,0.0,298,Two-wheeler spillover,Add two-wheeler parking supply; mark legal bays near transit/markets
17267_2880,Outer Ring Road,12.96101970940276,77.70168520797506,HAL Old Airport,28.50837829836449,301,138,2.391304347826087,none,10,8.625,31.18186753024872,True,14,0.0,138,(low-volume cell),
17267_2887,Whitefield Road,12.993555371794873,77.70385061282052,Mahadevapura,28.46478042504136,302,39,1.1538461538461535,poi_metro,7,3.5454545454545454,33.20839745016652,False,9,0.0256410256410256,39,(low-volume cell),
17242_2898,Hebbal Flyover,13.042756973804895,77.59037173873229,Kodigehalli,28.463581677255835,303,78,2.743589743589744,none,11,3.12,27.985536342297905,True,23,0.0128205128205128,78,(low-volume cell),
17223_2898,Mumbai Bengaluru Highway,13.045279301626016,77.50679013658535,Peenya,28.445331283172457,304,123,1.8211382113821135,none,6,5.857142857142857,28.8989500523791,True,19,0.024390243902439,123,(low-volume cell),
17239_2870,"BTP176 - Rajalakshmi Kalyana Mantapa, JP Nagar",12.917368440394087,77.57805314236452,Jayanagara,28.42022083287452,305,203,1.5788177339901477,poi_hospital,5,6.34375,26.57701573651444,True,30,0.0,203,Footpath / main-road encroachment,Physical deterrents (bollards/chains) + sustained pedestrian-priority enforcement
17265_2876,Outer Ring Road,12.942694949784514,77.69680990976822,HAL Old Airport,28.419385296825133,306,37,2.5135135135135136,none,5,2.466666666666667,31.51299602698933,False,13,0.0,37,(low-volume cell),
17223_2902,Hesaraghatta Main Road,13.059925617723524,77.50669386994943,Chikkabanavara,28.3736826271203,307,22,1.75,poi_mall,10,1.8333333333333333,32.95760119043825,False,10,0.0,22,(low-volume cell),
17240_2875,"BTP186 - 9th Cross, 4th Main, Jayanagar",12.93937704575272,77.58375273755341,Wilson Garden,28.370367684964464,308,476,2.0892857142857144,poi_school,3,14.424242424242424,25.71181654171677,True,31,0.0357142857142857,476,Two-wheeler spillover,Add two-wheeler parking supply; mark legal bays near transit/markets
17230_2898,HMT School,13.0445233,77.5383443,Jalahalli,28.33333333333333,309,1,1.0,poi_school,7,0.3333333333333333,43.46569208889373,False,1,0.0,1,(low-volume cell),
17264_2854,New Fruit Market Road,12.8443872,77.6881485,Electronic City,28.33239263913585,310,2,1.0,poi_market,3,0.6666666666666666,43.46424898568183,False,1,0.0,2,(low-volume cell),
17245_2873,"BTP127 - Sagar Hospital, Jayanagar",12.93087184723032,77.60639564752186,Mico Layout,28.315380700269525,311,343,1.6151603498542273,poi_school,2,42.875,35.686575922143376,True,6,0.0,343,Two-wheeler spillover,Add two-wheeler parking supply; mark legal bays near transit/markets
17231_2884,BTP067 - Jai Muni Rao Circle,12.978528814938503,77.54273588479917,Magadi Road,28.2957717296086,312,365,1.063013698630137,none,11,8.295454545454545,24.437382773017,True,42,0.0,365,Two-wheeler spillover,Add two-wheeler parking supply; mark legal bays near transit/markets
17274_2896,MBT Road,13.03542796893204,77.73534413009709,K.R. Pura,28.200219828861385,313,103,1.2815533980582523,none,2,8.583333333333334,32.756114559269314,True,10,0.0,103,(low-volume cell),
17223_2882,Kengeri Main Road,12.971569825438596,77.50755865087719,Jnanabharathi,28.142062990263057,314,114,1.824561403508772,none,10,7.6,31.205485619793347,True,13,0.0,114,(low-volume cell),
17249_2896,5th Cross Road,13.03456049271137,77.62412647784257,K.G. Halli,28.095555627383234,315,343,1.7230320699708457,none,4,42.875,35.409524935748806,True,6,0.0,343,Commercial / loading corridor,Designated timed loading bays + off-peak delivery windows; enforce during peak
17221_2899,Mumbai Bengaluru Highway,13.04890807813793,77.49734607250574,Chikkabanavara,28.08544837394225,316,145,1.0517241379310345,none,11,6.904761904761905,28.95367359805917,True,19,0.0,145,(low-volume cell),
17234_2881,8th Main Road,12.964711415422888,77.55489615771144,Magadi Road,28.079447689138743,317,201,1.7860696517412935,none,11,7.730769230769231,27.578272683558303,True,24,0.0,201,Footpath / main-road encroachment,Physical deterrents (bollards/chains) + sustained pedestrian-priority enforcement
17257_2879,Old Airport Road,12.95907184363985,77.65837463590208,Jeevanbheemanagar,28.07268774378458,318,65,1.1615384615384616,poi_mall,4,3.421052631578948,29.58685775779446,True,17,0.0,65,(low-volume cell),
17237_2880,BTP085 - Briyand Circle,12.962423378590232,77.569382211947,Chamarajpet,28.05244646713552,319,74,1.445945945945946,poi_market,7,3.083333333333333,28.06289316172344,True,22,0.0,74,(low-volume cell),
17256_2860,Hosa Road,12.87080780852355,77.65447645951079,Electronic City,28.028929510516416,320,414,1.2789855072463767,poi_school,12,17.25,28.039367447420272,True,22,0.0,414,CBD car parking,Occupancy-responsive paid parking (SFpark-style) + clear signage
17249_2870,BTP137 - Madiwala Traffic PS Junction,12.91735151111111,77.6227917925926,Madiwala,27.970942599647795,321,54,2.6203703703703702,none,10,3.6,31.015737807401432,True,13,0.0,54,(low-volume cell),
17237_2887,South End Road,12.993354808450704,77.56892484929577,Sheshadripuram,27.96412292187552,322,71,1.2535211267605637,poi_mall,9,7.888888888888889,34.42789003872484,True,7,0.0,71,(low-volume cell),
17232_2881,1st Main Road,12.967651511219511,77.54599938585366,Vijayanagara,27.88030029234973,323,205,1.6902439024390243,none,4,9.318181818181818,28.444929164826146,True,20,0.0,205,Two-wheeler spillover,Add two-wheeler parking supply; mark legal bays near transit/markets
17251_2904,Thanisandra Main Road,13.071452838095237,77.63356709238094,Hennuru,27.80131749119561,324,105,1.9142857142857144,none,7,11.666666666666666,34.22745294721246,True,7,0.0,105,(low-volume cell),
17246_2869,"BTP163 - 16th Main Road, BTM Layout",12.913636012448134,77.60832211120332,Mico Layout,27.756971431776574,325,241,2.4356846473029043,none,12,30.125,34.9827988842626,True,6,0.0,241,Two-wheeler spillover,Add two-wheeler parking supply; mark legal bays near transit/markets
17258_2854,1st Main Road,12.8453323,77.6653119,Electronic City,27.67137445970337,326,4,2.0,poi_techpark,6,0.8,38.258833151299,False,3,0.0,4,(low-volume cell),
17255_2870,27th Main Road,12.917239937142858,77.65172178628572,HSR Layout,27.644181539823187,327,175,1.9285714285714288,none,11,25.0,35.77185743747755,True,5,0.0,175,(low-volume cell),
17237_2879,BTP214 - 5th Main Chamrajpet  Junction,12.957844766078573,77.56820746325843,Chamarajpet,27.610040208900795,328,203,1.480295566502463,none,10,9.666666666666666,28.46356880595503,True,19,0.0,203,Footpath / main-road encroachment,Physical deterrents (bollards/chains) + sustained pedestrian-priority enforcement
17223_2880,Mallathahalli Road,12.9610631,77.50535037777779,Jnanabharathi,27.59651164585249,329,27,1.351851851851852,poi_mall,4,1.9285714285714288,31.0474555663384,False,12,0.0,27,(low-volume cell),
17229_2877,BTP098 - Nayandahalli Junction,12.947535516831683,77.53352306930694,Byatarayanapura,27.566803378246316,330,101,1.0,none,6,5.611111111111111,29.39800963311942,True,16,0.0,101,(low-volume cell),
17244_2868,BTP130 - GD Mara Junction,12.908031759313726,77.60080993415033,Mico Layout,27.5473267522902,331,612,1.6225490196078431,none,11,29.142857142857142,28.398916644140375,True,19,0.0,612,Two-wheeler spillover,Add two-wheeler parking supply; mark legal bays near transit/markets
17241_2867,"BTP221 - 15th Cross, 24th Main, JP Nagar",12.904363592405064,77.58569813544304,J.P. Nagar,27.529662005250486,332,79,2.3227848101265822,poi_hospital,9,4.9375,29.89753120398181,True,14,0.0126582278481012,79,(low-volume cell),
17229_2868,4th Main Road,12.907726597180858,77.53302121786982,K.S. Layout,27.518234248470907,333,68,1.8088235294117647,none,5,11.333333333333334,36.70525058972272,True,4,0.0,68,(low-volume cell),
17228_2880,BTP017 - Attiguppe Circle,12.96083009220836,77.52825816565488,Byatarayanapura,27.51269304339243,334,983,1.9354018311291965,none,12,51.73684210526316,28.99665835484311,True,17,0.0,983,Two-wheeler spillover,Add two-wheeler parking supply; mark legal bays near transit/markets
17267_2881,Outer Ring Road,12.9669613618387,77.70200594467208,HAL Old Airport,27.51001684899282,335,58,2.155172413793104,none,9,3.0526315789473686,28.99383781326347,True,17,0.0,58,(low-volume cell),
17233_2899,Jalahalli Main Road,13.0465977025,77.549326905,Jalahalli,27.490526697341743,336,40,1.9125,none,11,5.714285714285714,35.573026478713,False,5,0.0,40,(low-volume cell),
17265_2889,IOC Main Road,13.0020971,77.69328056666667,K.R. Pura,27.462901703545704,337,3,1.8333333333333333,poi_transit,10,1.0,42.13037750519552,False,1,0.0,3,(low-volume cell),
17240_2876,BTP185 - RV Teachers College,12.94437825,77.58158669166666,Wilson Garden,27.330650622952454,338,24,1.0833333333333333,poi_school,11,1.8461538461538465,31.226395406053275,False,11,0.0,24,(low-volume cell),
17276_2885,Mims Gulmohar Road,12.985459871698112,77.74565409339623,Whitefield,27.238386323972662,339,106,1.0,poi_techpark,10,26.5,39.372528804757664,False,2,0.0,106,(low-volume cell),
17244_2873,"BTP127 - Sagar Hospital, Jayanagar",12.9313209625,77.600964725,Mico Layout,27.213798092928528,340,8,1.875,poi_hospital,3,1.6,37.62618160390623,False,3,0.0,8,(low-volume cell),
17251_2915,Bellahali Main Road,13.121144252659574,77.63144922978724,Yelahanka,27.18668057597309,341,188,1.6117021276595744,none,13,20.88888888888889,33.47074578388968,True,7,0.0,188,(low-volume cell),
17252_2868,Hosapalya Main Road,12.907274001282053,77.6362599551282,HSR Layout,27.155889369563525,342,78,1.9038461538461535,none,10,8.666666666666666,33.43283734415819,True,7,0.0,78,(low-volume cell),
17264_2888,Whitefield Road,12.998362153333732,77.68983022126363,Mahadevapura,27.081244276812765,343,114,1.2763157894736843,poi_transit,1,7.6,30.02919079310512,True,13,0.0,114,(low-volume cell),
17266_2881,Outer Ring Road,12.968383270833334,77.70114113125,HAL Old Airport,27.075460156376497,344,48,2.09375,none,9,4.363636363636363,32.01355920245482,False,9,0.0,48,(low-volume cell),
17223_2899,Hesaraghatta Main Road,13.046553520833331,77.5067898475,Chikkabanavara,27.075432107207348,345,120,1.7916666666666667,none,11,7.0588235294117645,28.540424623631903,True,15,0.0416666666666666,120,(low-volume cell),
17228_2889,Dr Rajkumar Puniya Bhoomi Road,13.003512807017543,77.52697754385966,Rajajinagar,27.055909817598117,346,57,1.4912280701754386,none,11,11.4,37.40788304446136,True,3,0.0,57,(low-volume cell),
17278_2883,Whitefield Main Road,12.976447768421052,77.75122451052631,Whitefield,27.04308429954333,347,19,2.0,poi_techpark,8,3.1666666666666665,36.07147090074977,False,4,0.0,19,(low-volume cell),
17262_2850,Hosur Road,12.82712985925926,77.68231207037036,Electronic City,27.042190658198173,348,27,1.037037037037037,none,3,5.4,37.38891474090916,False,3,0.0,27,(low-volume cell),
17251_2867,Hosur Road,12.905070699345808,77.63041170981478,HSR Layout,26.93325623056638,349,198,1.3535353535353536,poi_techpark,11,10.421052631578949,28.385968180920955,True,17,0.0,198,(low-volume cell),
17235_2896,MS Ramaiah Road,13.033452664130436,77.55819146847826,Yeshwanthpura,26.88767773353821,350,184,1.048913043478261,none,10,15.333333333333334,31.231524343335344,True,10,0.0,184,(low-volume cell),
17278_2886,Whitefield Main Road,12.9877852,77.7538835,Mahadevapura,26.83333333333333,351,1,2.0,none,0,0.3333333333333333,41.16456721359936,False,1,0.0,1,(low-volume cell),
17239_2894,80 Feet Road,13.027105790292746,77.5785339055561,Kodigehalli,26.80885366030988,352,347,1.0389048991354466,poi_hospital,3,14.458333333333334,26.818837242553577,True,22,0.0,347,CBD car parking,Occupancy-responsive paid parking (SFpark-style) + clear signage
17247_2889,Madhavaraya Mudaliar Road,13.001639295780592,77.61299258227848,Pulikeshinagar(F.Town),26.790044608268616,353,237,1.0147679324894514,poi_school,11,10.304347826086955,27.06025341554396,True,21,0.0,237,Footpath / main-road encroachment,Physical deterrents (bollards/chains) + sustained pedestrian-priority enforcement
17256_2879,Old Airport Road,12.958847449907196,77.65493219502929,Jeevanbheemanagar,26.764524239819448,354,119,1.084033613445378,poi_mall,4,4.76,26.38756008723332,True,23,0.0084033613445378,119,(low-volume cell),
17255_2861,Hosur Road,12.87569343360324,77.64816927246964,Hulimavu,26.74435644107012,355,247,1.062753036437247,none,2,49.4,36.97712494577471,True,3,0.0,247,Commercial / loading corridor,Designated timed loading bays + off-peak delivery windows; enforce during peak
17240_2870,"BTP177 - Aurobindo Circle, ORR",12.918168671794872,77.58292426410256,Jayanagara,26.683583843844783,356,39,2.948717948717949,none,6,3.0,30.487094926994462,False,11,0.0,39,(low-volume cell),
17247_2893,Dr Ambedkar Medical College Road,13.020695370967742,77.61357114193548,K.G. Halli,26.675621151100405,357,31,1.3709677419354838,poi_school,6,5.166666666666667,35.581329461284575,False,4,0.0,31,(low-volume cell),
17261_2852,Hosur Road,12.83666365,77.67838715,Electronic City,26.66111324682938,358,14,1.2857142857142858,poi_techpark,4,2.8,36.86203172971218,False,3,0.0,14,(low-volume cell),
17222_2880,1st Cross Road,12.9608584,77.5023634,Jnanabharathi,26.580584781970952,359,6,1.5,poi_mall,3,2.0,40.776829894442976,False,1,0.0,6,(low-volume cell),
17245_2874,BTP126 - Dairy Circle,12.9364634163522,77.60578283773584,Mico Layout,26.47194167764157,360,159,1.0314465408805031,poi_techpark,3,13.25,30.748623927806243,True,10,0.0,159,(low-volume cell),
17235_2879,BTP091 - Sirsi Circle,12.958662055882352,77.55934051764706,Chamarajpet,26.461266173978203,361,34,1.8823529411764703,none,8,3.4,31.896585042711475,False,8,0.0,34,(low-volume cell),
17262_2931,Unnamed Road,13.19069966996587,77.68070501433446,Devanahalli Airport,26.368217256832065,362,293,1.0,none,5,26.63636363636364,31.01165755125273,True,9,0.0102389078498293,293,CBD car parking,Occupancy-responsive paid parking (SFpark-style) + clear signage
17277_2880,Whitefield Main Road,12.961483,77.7477915051282,Whitefield,26.36136162162256,363,39,1.9230769230769231,none,8,3.25,30.62017907862028,False,10,0.0,39,(low-volume cell),
17264_2848,Hosur Road,12.818492275280898,77.68919602303372,Electronic City,26.3313005226982,364,178,1.0,none,2,11.125,28.800625423335564,True,14,0.0,178,(low-volume cell),
17227_2890,10th B Main Road,13.00754,77.5259183,Rajajinagar,26.24637445970337,365,4,1.75,poi_mall,11,1.3333333333333333,40.26412343700959,False,1,0.0,4,(low-volume cell),
17226_2874,Sri Sri Sri Tiruchi Mahaswamiji Road,12.936005218230564,77.51806129168901,Byatarayanapura,26.234843920071636,366,373,1.0067024128686326,poi_mall,11,24.866666666666667,29.090654973253823,True,13,0.0,373,Two-wheeler spillover,Add two-wheeler parking supply; mark legal bays near transit/markets
17267_2867,Chikkabellanduru Road,12.903771777790668,77.70394104671384,Bellandur,26.233913547633986,367,162,1.4444444444444444,poi_techpark,11,12.461538461538462,29.973328069939,True,11,0.0,162,(low-volume cell),
17239_2876,BTP185 - RV Teachers College,12.944783133595337,77.57926321552519,Basavanagudi,26.228394305834147,368,37,1.0,poi_school,4,2.642857142857143,29.5082551460512,False,12,0.0,37,(low-volume cell),
17252_2870,14th Main Road,12.916413707625038,77.63759001309174,HSR Layout,26.21627449600452,369,112,2.09375,poi_metro,3,5.333333333333333,27.026716633040955,True,19,0.0,112,(low-volume cell),
17277_2882,Whitefield Main Road,12.970159192664443,77.75002485656866,Whitefield,26.19587315410016,370,46,1.9782608695652173,none,7,4.181818181818182,30.973550633497904,False,9,0.0,46,(low-volume cell),
17279_2889,Whitefield Main Road,13.003139294909252,77.75709408047788,Mahadevapura,26.154172381918688,371,104,1.9182692307692308,none,8,8.0,29.882220499719857,True,11,0.0,104,(low-volume cell),
17241_2895,11th Cross Road,13.028036748554912,77.58616476531792,R.T. Nagar,26.101447543303717,372,173,1.369942196531792,poi_mall,9,10.176470588235292,28.181103106216685,True,15,0.0,173,(low-volume cell),
17223_2901,Hesaraghatta Main Road,13.055284109433964,77.50755399245283,Chikkabanavara,26.05756871390977,373,106,1.8820754716981127,poi_mall,11,11.77777777777778,32.080645363535474,True,7,0.0,106,(low-volume cell),
17269_2881,2nd Cross Road,12.96719391,77.714168422,HAL Old Airport,26.04193247778091,374,50,1.73,poi_techpark,7,8.333333333333334,34.73608258461212,True,4,0.0,50,(low-volume cell),
17242_2890,Jayamahal Main Road,13.006532300970877,77.5929050368932,R.T. Nagar,26.036465783553936,375,103,1.83495145631068,none,9,4.681818181818182,26.56375351591285,True,20,0.0,103,(low-volume cell),
17235_2880,BTP091 - Sirsi Circle,12.96163970642857,77.55990170071429,Chamarajpet,26.015011527147493,376,140,1.4,none,3,5.185185185185185,25.3277177790613,True,25,0.0,140,(low-volume cell),
17270_2865,Sarjapura Main Road,12.8969437,77.7192774,Whitefield,26.0,378,1,2.0,none,1,0.3333333333333333,39.88616450510249,False,1,0.0,1,(low-volume cell),
17261_2883,Kaggadaspura Main Road,12.9741055,77.6784602,Banaswadi,26.0,377,1,2.0,poi_mall,2,0.3333333333333333,39.88616450510249,False,1,0.0,1,(low-volume cell),
17244_2869,BTP130 - GD Mara Junction,12.912149108333333,77.60007279583333,Mico Layout,25.98342840073024,379,24,2.020833333333333,poi_mall,4,3.0,32.74755865568884,False,6,0.0,24,(low-volume cell),
17270_2887,Hoodi Main Road,12.993244408910892,77.71701642970297,Mahadevapura,25.97802450035852,380,101,1.6683168316831682,none,4,9.181818181818182,30.715970125781567,True,9,0.0,101,(low-volume cell),
17258_2853,2nd Cross Road,12.84050255625,77.6634438625,Electronic City,25.940943690654905,381,16,1.4375,poi_techpark,6,1.7777777777777777,31.937063049597025,False,7,0.0,16,(low-volume cell),
17239_2890,3rd Main Road,13.007035510256411,77.57895909487179,Sadashivanagar,25.937644570081268,382,156,1.6923076923076923,poi_mall,11,5.571428571428571,25.03848292876121,True,26,0.0,156,(low-volume cell),
17250_2881,BTP144 - Commando Hospital Junction,12.96816244,77.62833364000001,Halasur,25.923072120459334,383,5,3.0,poi_hospital,7,1.25,37.47126909909157,False,2,0.0,5,(low-volume cell),
17239_2886,BTP054 - Shivananda Circle,12.98828288317757,77.5775675135514,Sheshadripuram,25.9164667403629,384,214,1.1401869158878504,poi_transit,10,6.6875,24.23564364414589,True,30,0.0,214,CBD car parking,Occupancy-responsive paid parking (SFpark-style) + clear signage
17245_2870,"BTP163 - 16th Main Road, BTM Layout",12.916501149999998,77.60496574999999,Mico Layout,25.87432075738637,385,10,2.75,none,8,1.4285714285714286,33.481639240845155,False,5,0.0,10,(low-volume cell),
17237_2881,BTP085 - Briyand Circle,12.96753273148148,77.56920196234567,Chamarajpet,25.840086387140147,386,162,1.021604938271605,none,2,7.043478260869565,26.00283513271572,True,21,0.0061728395061728,162,(low-volume cell),
17242_2894,RT Nagar Main Road,13.02426083463035,77.59231960272373,R.T. Nagar,25.792292551233416,387,257,1.9182879377431907,none,6,18.357142857142858,29.01761886483834,True,12,0.0,257,Two-wheeler spillover,Add two-wheeler parking supply; mark legal bays near transit/markets
17244_2880,BTP172 - Nanjappa Circle,12.961926653174602,77.59916923492064,Ashok Nagar,25.774053781640397,388,1008,1.0178571428571428,none,4,32.516129032258064,24.28714718906868,True,29,0.0,1008,Two-wheeler spillover,Add two-wheeler parking supply; mark legal bays near transit/markets
17263_2849,Hosur Road,12.822315818181815,77.6861684909091,Electronic City,25.70539748850084,389,44,1.2159090909090908,none,7,6.285714285714286,33.263050780060354,False,5,0.0,44,(low-volume cell),
17221_2880,1st Cross Road,12.96193145,77.4982552,Jnanabharathi,25.654707793036707,390,4,1.5,poi_mall,14,1.3333333333333333,39.35645751397681,False,1,0.0,4,(low-volume cell),
17242_2886,BTP034 - LRDE Junction,12.98884331459305,77.59221252567663,High ground,25.64423008385466,391,262,1.0,poi_school,5,6.717948717948718,22.840120214190936,True,37,0.0,262,CBD car parking,Occupancy-responsive paid parking (SFpark-style) + clear signage
17223_2877,Gandhi Marg,12.948200902743482,77.50593293373886,Jnanabharathi,25.6004065816946,392,7,1.0,poi_school,4,2.333333333333333,39.27315493519151,False,1,0.0,7,(low-volume cell),
17253_2869,17th Cross Road,12.912200360000002,77.63938076666666,HSR Layout,25.59202110101329,393,30,1.6,poi_metro,11,3.75,32.254258337191025,False,6,0.0,30,(low-volume cell),
